[
  {
    "icao": "K5J0",
    "iata": "5J0",
    "synop": 0,
    "name": "John Day State",
    "state": "OR",
    "country": "US",
    "radius": 3,
    "fillKey": "RED",
    "borderWidth": 0,
    "latitude": 44.3833333333,
    "longitude": -118.966666667,
    "elev": 1127,
    "priority": 8,
    "srcid": "k5j0"
  },
  {
    "icao": 0,
    "iata": 0,
    "synop": 0,
    "name": "afa",
    "state": 0,
    "country": 0,
    "radius": 3,
    "fillKey": "RED",
    "borderWidth": 0,
    "latitude": 48.02,
    "longitude": -65.04,
    "elev": 0,
    "priority": 7,
    "srcid": "afa"
  },
  {
    "icao": "KTYR",
    "iata": "TYR",
    "synop": 0,
    "name": "Tyler/Pounds Field",
    "state": "TX",
    "country": "US",
    "radius": 3,
    "fillKey": "RED",
    "borderWidth": 0,
    "latitude": 32.35,
    "longitude": -95.4,
    "elev": 165,
    "priority": 4,
    "srcid": "ktyr"
  },
  {
    "icao": "KOQU",
    "iata": "OQU",
    "synop": 0,
    "name": "N. Kingston/Quon",
    "state": "RI",
    "country": "US",
    "radius": 3,
    "fillKey": "RED",
    "borderWidth": 0,
    "latitude": 41.61,
    "longitude": -71.42,
    "elev": 6,
    "priority": 7,
    "srcid": "koqu"
  },
  {
    "icao": "MMVR",
    "iata": "VER",
    "synop": 76692,
    "name": "Veracruz/Gen Heriberto Vara",
    "state": 0,
    "country": "MX",
    "radius": 3,
    "fillKey": "RED",
    "borderWidth": 0,
    "latitude": 19.15,
    "longitude": -96.18,
    "elev": 16,
    "priority": 7,
    "srcid": "mmvr"
  },
  {
    "icao": "KUIL",
    "iata": "UIL",
    "synop": 72797,
    "name": "Quillayute State",
    "state": "WA",
    "country": "US",
    "radius": 3,
    "fillKey": "RED",
    "borderWidth": 0,
    "latitude": 47.96,
    "longitude": -124.55,
    "elev": 54,
    "priority": 2,
    "srcid": "uil"
  },
  {
    "icao": 0,
    "iata": 0,
    "synop": 0,
    "name": "b#6",
    "state": 0,
    "country": 0,
    "radius": 3,
    "fillKey": "RED",
    "borderWidth": 0,
    "latitude": 25.9,
    "longitude": -93.58,
    "elev": 0,
    "priority": 7,
    "srcid": "b#6"
  },
  {
    "icao": "KLWA",
    "iata": "LWA",
    "synop": 0,
    "name": "South Haven Area Rgnl",
    "state": "MI",
    "country": "US",
    "radius": 3,
    "fillKey": "RED",
    "borderWidth": 0,
    "latitude": 42.351,
    "longitude": -86.256,
    "elev": 203,
    "priority": 8,
    "srcid": "lwa"
  },
  {
    "icao": "KREJ",
    "iata": "REJ",
    "synop": 72661,
    "name": "Redig",
    "state": "SD",
    "country": "US",
    "radius": 3,
    "fillKey": "RED",
    "borderWidth": 0,
    "latitude": 45.22,
    "longitude": -103.61,
    "elev": 955,
    "priority": 8,
    "srcid": "bh1"
  },
  {
    "icao": 0,
    "iata": 0,
    "synop": 0,
    "name": "wxk",
    "state": 0,
    "country": 0,
    "radius": 3,
    "fillKey": "RED",
    "borderWidth": 0,
    "latitude": 69.53,
    "longitude": -120.86,
    "elev": 197,
    "priority": 7,
    "srcid": "wxk"
  },
  {
    "icao": 0,
    "iata": 0,
    "synop": 0,
    "name": "ls2",
    "state": 0,
    "country": 0,
    "radius": 3,
    "fillKey": "RED",
    "borderWidth": 0,
    "latitude": 47.56,
    "longitude": -86.53,
    "elev": 183,
    "priority": 7,
    "srcid": "ls2"
  },
  {
    "icao": 0,
    "iata": 0,
    "synop": 0,
    "name": "g003",
    "state": 0,
    "country": 0,
    "radius": 3,
    "fillKey": "RED",
    "borderWidth": 0,
    "latitude": 44.5,
    "longitude": -122.64,
    "elev": 445,
    "priority": 7,
    "srcid": "g003"
  },
  {
    "icao": "KRDU",
    "iata": "RDU",
    "synop": 72306,
    "name": "Raleigh-Durham",
    "state": "NC",
    "country": "US",
    "radius": 3,
    "fillKey": "RED",
    "borderWidth": 0,
    "latitude": 35.88,
    "longitude": -78.78,
    "elev": 130,
    "priority": 2,
    "srcid": "krdu"
  },
  {
    "icao": "SKBO",
    "iata": 0,
    "synop": 80222,
    "name": "Bogota/Eldorado",
    "state": 0,
    "country": "CO",
    "radius": 3,
    "fillKey": "RED",
    "borderWidth": 0,
    "latitude": 4.7,
    "longitude": -74.1166666667,
    "elev": 2548,
    "priority": 6,
    "srcid": "skbo"
  },
  {
    "icao": "PABT",
    "iata": "BTT",
    "synop": 70174,
    "name": "Bettles Field",
    "state": "AK",
    "country": "US",
    "radius": 3,
    "fillKey": "RED",
    "borderWidth": 0,
    "latitude": 66.92,
    "longitude": -151.52,
    "elev": 195,
    "priority": 6,
    "srcid": "pabt"
  },
  {
    "icao": "KMGM",
    "iata": "MGM",
    "synop": 72226,
    "name": "Montgomery/Danne",
    "state": "AL",
    "country": "US",
    "radius": 3,
    "fillKey": "RED",
    "borderWidth": 0,
    "latitude": 32.3,
    "longitude": -86.4,
    "elev": 63,
    "priority": 4,
    "srcid": "kmgm"
  },
  {
    "icao": "KDMW",
    "iata": "DMW",
    "synop": 0,
    "name": "Westminster",
    "state": "MD",
    "country": "US",
    "radius": 3,
    "fillKey": "RED",
    "borderWidth": 0,
    "latitude": 39.61,
    "longitude": -77.05,
    "elev": 188,
    "priority": 8,
    "srcid": "w54"
  },
  {
    "icao": "KJAY",
    "iata": "JAY",
    "synop": 0,
    "name": "Jay Peak",
    "state": "VT",
    "country": "US",
    "radius": 3,
    "fillKey": "RED",
    "borderWidth": 0,
    "latitude": 44.97,
    "longitude": -72.56,
    "elev": 355,
    "priority": 8,
    "srcid": "jayv"
  },
  {
    "icao": "TISX",
    "iata": 0,
    "synop": 78547,
    "name": "Christiansted/Alexander",
    "state": 0,
    "country": "VI",
    "radius": 3,
    "fillKey": "RED",
    "borderWidth": 0,
    "latitude": 17.7,
    "longitude": -64.8,
    "elev": 19,
    "priority": 6,
    "srcid": "tisx"
  },
  {
    "icao": "KESC",
    "iata": "ESC",
    "synop": 72648,
    "name": "Escanaba",
    "state": "MI",
    "country": "US",
    "radius": 3,
    "fillKey": "RED",
    "borderWidth": 0,
    "latitude": 45.73,
    "longitude": -87.08,
    "elev": 187,
    "priority": 7,
    "srcid": "kesc"
  },
  {
    "icao": "KJKL",
    "iata": "JKL",
    "synop": 0,
    "name": "Jackson",
    "state": "KY",
    "country": "US",
    "radius": 3,
    "fillKey": "RED",
    "borderWidth": 0,
    "latitude": 37.58,
    "longitude": -83.32,
    "elev": 416,
    "priority": 5,
    "srcid": "kjkl"
  },
  {
    "icao": "KLAA",
    "iata": "LAA",
    "synop": 72463,
    "name": "Lamar",
    "state": "CO",
    "country": "US",
    "radius": 3,
    "fillKey": "RED",
    "borderWidth": 0,
    "latitude": 38.07,
    "longitude": -102.68,
    "elev": 1119,
    "priority": 4,
    "srcid": "laa"
  },
  {
    "icao": "KUCA",
    "iata": "UCA",
    "synop": 0,
    "name": "Utica",
    "state": "NY",
    "country": "US",
    "radius": 3,
    "fillKey": "RED",
    "borderWidth": 0,
    "latitude": 43.15,
    "longitude": -75.3833333333,
    "elev": 228,
    "priority": 4,
    "srcid": "kuca"
  },
  {
    "icao": 0,
    "iata": 0,
    "synop": 0,
    "name": "atl4",
    "state": 0,
    "country": 0,
    "radius": 3,
    "fillKey": "RED",
    "borderWidth": 0,
    "latitude": 38.56,
    "longitude": -73.79,
    "elev": 0,
    "priority": 7,
    "srcid": "atl4"
  },
  {
    "icao": "MUHA",
    "iata": 0,
    "synop": 78224,
    "name": "Havana/Jose Martinez",
    "state": 0,
    "country": "CU",
    "radius": 3,
    "fillKey": "RED",
    "borderWidth": 0,
    "latitude": 22.98,
    "longitude": -82.4,
    "elev": 64,
    "priority": 0,
    "srcid": "muha"
  },
  {
    "icao": "CYQH",
    "iata": "YQH",
    "synop": 71953,
    "name": "Watson Lake",
    "state": "YK",
    "country": "CA",
    "radius": 3,
    "fillKey": "RED",
    "borderWidth": 0,
    "latitude": 60.12,
    "longitude": -128.82,
    "elev": 690,
    "priority": 6,
    "srcid": "cyqh"
  },
  {
    "icao": "TDPD",
    "iata": 0,
    "synop": 78905,
    "name": "Melville Hall Ar",
    "state": 0,
    "country": "DM",
    "radius": 3,
    "fillKey": "RED",
    "borderWidth": 0,
    "latitude": 15.55,
    "longitude": -61.3,
    "elev": 14,
    "priority": 7,
    "srcid": "tdpd"
  },
  {
    "icao": "KBVX",
    "iata": "BVX",
    "synop": 0,
    "name": "Batesville",
    "state": "AR",
    "country": "US",
    "radius": 3,
    "fillKey": "RED",
    "borderWidth": 0,
    "latitude": 35.73,
    "longitude": -91.65,
    "elev": 141,
    "priority": 7,
    "srcid": "kbvx"
  },
  {
    "icao": "KHKY",
    "iata": "HKY",
    "synop": 0,
    "name": "Hickory",
    "state": "NC",
    "country": "US",
    "radius": 3,
    "fillKey": "RED",
    "borderWidth": 0,
    "latitude": 35.76,
    "longitude": -81.38,
    "elev": 354,
    "priority": 6,
    "srcid": "khky"
  },
  {
    "icao": "KAUS",
    "iata": "AUS",
    "synop": 72254,
    "name": "Austin/Bergstrom Intl",
    "state": "TX",
    "country": "US",
    "radius": 3,
    "fillKey": "RED",
    "borderWidth": 0,
    "latitude": 30.183,
    "longitude": -97.68,
    "elev": 166,
    "priority": 3,
    "srcid": "kaus"
  },
  {
    "icao": 0,
    "iata": 0,
    "synop": 0,
    "name": "g007",
    "state": 0,
    "country": 0,
    "radius": 3,
    "fillKey": "RED",
    "borderWidth": 0,
    "latitude": 44.06,
    "longitude": -120.54,
    "elev": 1352,
    "priority": 7,
    "srcid": "g007"
  },
  {
    "icao": "KSLE",
    "iata": "SLE",
    "synop": 72694,
    "name": "Salem/Mcnary",
    "state": "OR",
    "country": "US",
    "radius": 3,
    "fillKey": "RED",
    "borderWidth": 0,
    "latitude": 44.93,
    "longitude": -123.02,
    "elev": 59,
    "priority": 2,
    "srcid": "ksle"
  },
  {
    "icao": "KNBK",
    "iata": "NBK",
    "synop": 0,
    "name": "New Brunswick",
    "state": "NJ",
    "country": "US",
    "radius": 3,
    "fillKey": "RED",
    "borderWidth": 0,
    "latitude": 40.47,
    "longitude": -74.4,
    "elev": 25,
    "priority": 8,
    "srcid": "rutg"
  },
  {
    "icao": "MSSS",
    "iata": 0,
    "synop": 78663,
    "name": "Ilopango/San Salvador",
    "state": 0,
    "country": "SV",
    "radius": 3,
    "fillKey": "RED",
    "borderWidth": 0,
    "latitude": 13.7,
    "longitude": -89.12,
    "elev": 616,
    "priority": 6,
    "srcid": "msss"
  },
  {
    "icao": "KVCT",
    "iata": "VCT",
    "synop": 72255,
    "name": "Victoria Rgnl",
    "state": "TX",
    "country": "US",
    "radius": 3,
    "fillKey": "RED",
    "borderWidth": 0,
    "latitude": 28.86,
    "longitude": -96.92,
    "elev": 31,
    "priority": 6,
    "srcid": "kvct"
  },
  {
    "icao": 0,
    "iata": 0,
    "synop": 0,
    "name": "b46",
    "state": 0,
    "country": 0,
    "radius": 3,
    "fillKey": "RED",
    "borderWidth": 0,
    "latitude": 28.7,
    "longitude": -96.01,
    "elev": 2,
    "priority": 7,
    "srcid": "b46"
  },
  {
    "icao": 0,
    "iata": 0,
    "synop": 0,
    "name": "a#e",
    "state": 0,
    "country": 0,
    "radius": 3,
    "fillKey": "RED",
    "borderWidth": 0,
    "latitude": 60.97,
    "longitude": -149.25,
    "elev": 640,
    "priority": 7,
    "srcid": "a#e"
  },
  {
    "icao": 0,
    "iata": 0,
    "synop": 0,
    "name": "efl",
    "state": 0,
    "country": 0,
    "radius": 3,
    "fillKey": "RED",
    "borderWidth": 0,
    "latitude": 60,
    "longitude": -120,
    "elev": 449,
    "priority": 7,
    "srcid": "efl"
  },
  {
    "icao": 0,
    "iata": 0,
    "synop": 0,
    "name": "coa",
    "state": 0,
    "country": 0,
    "radius": 3,
    "fillKey": "RED",
    "borderWidth": 0,
    "latitude": 36.15,
    "longitude": -120.32,
    "elev": 369,
    "priority": 7,
    "srcid": "coa"
  },
  {
    "icao": 0,
    "iata": 0,
    "synop": 0,
    "name": "lin",
    "state": 0,
    "country": 0,
    "radius": 3,
    "fillKey": "RED",
    "borderWidth": 0,
    "latitude": 35.62,
    "longitude": -87.85,
    "elev": 188,
    "priority": 7,
    "srcid": "lin"
  },
  {
    "icao": "CYYT",
    "iata": "YYT",
    "synop": 71801,
    "name": "St. Johns/Torbay",
    "state": "NF",
    "country": "CA",
    "radius": 3,
    "fillKey": "RED",
    "borderWidth": 0,
    "latitude": 47.62,
    "longitude": -52.75,
    "elev": 140,
    "priority": 5,
    "srcid": "cyyt"
  },
  {
    "icao": 0,
    "iata": 0,
    "synop": 0,
    "name": "mrp",
    "state": 0,
    "country": 0,
    "radius": 3,
    "fillKey": "RED",
    "borderWidth": 0,
    "latitude": 48.35,
    "longitude": -113.28,
    "elev": 1768,
    "priority": 7,
    "srcid": "mrp"
  },
  {
    "icao": "CYVP",
    "iata": "YVP",
    "synop": 71906,
    "name": "Kuujjuaq",
    "state": "QB",
    "country": "CA",
    "radius": 3,
    "fillKey": "RED",
    "borderWidth": 0,
    "latitude": 58.11,
    "longitude": -68.42,
    "elev": 60,
    "priority": 5,
    "srcid": "cyvp"
  },
  {
    "icao": 0,
    "iata": 0,
    "synop": 0,
    "name": "nck",
    "state": 0,
    "country": 0,
    "radius": 3,
    "fillKey": "RED",
    "borderWidth": 0,
    "latitude": 60.02,
    "longitude": -151.56,
    "elev": 172,
    "priority": 7,
    "srcid": "nck"
  },
  {
    "icao": 0,
    "iata": 0,
    "synop": 0,
    "name": "lhs",
    "state": 0,
    "country": 0,
    "radius": 3,
    "fillKey": "RED",
    "borderWidth": 0,
    "latitude": 35.59,
    "longitude": -119.72,
    "elev": 133,
    "priority": 7,
    "srcid": "lhs"
  },
  {
    "icao": "KFMY",
    "iata": "FMY",
    "synop": 0,
    "name": "Fort Myers/Page Field",
    "state": "FL",
    "country": "US",
    "radius": 3,
    "fillKey": "RED",
    "borderWidth": 0,
    "latitude": 26.58,
    "longitude": -81.87,
    "elev": 4,
    "priority": 6,
    "srcid": "kfmy"
  },
  {
    "icao": "KMCO",
    "iata": "MCO",
    "synop": 72205,
    "name": "Orlando Jetport",
    "state": "FL",
    "country": "US",
    "radius": 3,
    "fillKey": "RED",
    "borderWidth": 0,
    "latitude": 28.43,
    "longitude": -81.32,
    "elev": 29,
    "priority": 2,
    "srcid": "kmco"
  },
  {
    "icao": 0,
    "iata": 0,
    "synop": 0,
    "name": "eon",
    "state": 0,
    "country": 0,
    "radius": 3,
    "fillKey": "RED",
    "borderWidth": 0,
    "latitude": 42.46,
    "longitude": -74.99,
    "elev": 504,
    "priority": 7,
    "srcid": "eon"
  },
  {
    "icao": "MUBY",
    "iata": 0,
    "synop": 0,
    "name": "Bayamo",
    "state": 0,
    "country": "CU",
    "radius": 3,
    "fillKey": "RED",
    "borderWidth": 0,
    "latitude": 20.4,
    "longitude": -76.6166666667,
    "elev": 64,
    "priority": 7,
    "srcid": "muby"
  },
  {
    "icao": 0,
    "iata": 0,
    "synop": 0,
    "name": "a#c",
    "state": 0,
    "country": 0,
    "radius": 3,
    "fillKey": "RED",
    "borderWidth": 0,
    "latitude": 59.89,
    "longitude": -161.88,
    "elev": 1,
    "priority": 7,
    "srcid": "a#c"
  },
  {
    "icao": 0,
    "iata": 0,
    "synop": 0,
    "name": "bky",
    "state": 0,
    "country": 0,
    "radius": 3,
    "fillKey": "RED",
    "borderWidth": 0,
    "latitude": 34.86,
    "longitude": -91.27,
    "elev": 54,
    "priority": 7,
    "srcid": "bky"
  },
  {
    "icao": "KCCR",
    "iata": "CCR",
    "synop": 0,
    "name": "Concord/Buchanan Fld",
    "state": "CA",
    "country": "US",
    "radius": 3,
    "fillKey": "RED",
    "borderWidth": 0,
    "latitude": 37.98,
    "longitude": -122.05,
    "elev": 11,
    "priority": 7,
    "srcid": "ccr"
  },
  {
    "icao": 0,
    "iata": 0,
    "synop": 0,
    "name": "c12",
    "state": 0,
    "country": 0,
    "radius": 3,
    "fillKey": "RED",
    "borderWidth": 0,
    "latitude": 33.66,
    "longitude": -97.38,
    "elev": 298,
    "priority": 7,
    "srcid": "c12"
  },
  {
    "icao": "MMNL",
    "iata": "NLD",
    "synop": 0,
    "name": "Nuevo Laredo Intl",
    "state": 0,
    "country": "MX",
    "radius": 3,
    "fillKey": "RED",
    "borderWidth": 0,
    "latitude": 27.43,
    "longitude": -99.57,
    "elev": 148,
    "priority": 6,
    "srcid": "mmnl"
  },
  {
    "icao": "KFHU",
    "iata": "FHU",
    "synop": 72273,
    "name": "Fort Huachuca",
    "state": "AZ",
    "country": "US",
    "radius": 3,
    "fillKey": "RED",
    "borderWidth": 0,
    "latitude": 31.58,
    "longitude": -110.33,
    "elev": 1438,
    "priority": 6,
    "srcid": "fhu"
  },
  {
    "icao": "SKBQ",
    "iata": 0,
    "synop": 80028,
    "name": "Barranquilla/Ern",
    "state": 0,
    "country": "CO",
    "radius": 3,
    "fillKey": "RED",
    "borderWidth": 0,
    "latitude": 10.9,
    "longitude": -74.7666666667,
    "elev": 10,
    "priority": 6,
    "srcid": "skbq"
  },
  {
    "icao": "KLRU",
    "iata": "LRU",
    "synop": 0,
    "name": "Las Cruces",
    "state": "NM",
    "country": "US",
    "radius": 3,
    "fillKey": "RED",
    "borderWidth": 0,
    "latitude": 32.289,
    "longitude": -106.922,
    "elev": 1358,
    "priority": 7,
    "srcid": "klru"
  },
  {
    "icao": "KISQ",
    "iata": "ISQ",
    "synop": 0,
    "name": "Manistique/Schoolcraft Co",
    "state": "MI",
    "country": "US",
    "radius": 3,
    "fillKey": "RED",
    "borderWidth": 0,
    "latitude": 45.97,
    "longitude": -86.17,
    "elev": 209,
    "priority": 7,
    "srcid": "isq"
  },
  {
    "icao": 0,
    "iata": 0,
    "synop": 0,
    "name": "ldl",
    "state": 0,
    "country": 0,
    "radius": 3,
    "fillKey": "RED",
    "borderWidth": 0,
    "latitude": 39.1,
    "longitude": -106.24,
    "elev": 3274,
    "priority": 7,
    "srcid": "ldl"
  },
  {
    "icao": "MPTO",
    "iata": 0,
    "synop": 78792,
    "name": "Tocumen",
    "state": 0,
    "country": "PA",
    "radius": 3,
    "fillKey": "RED",
    "borderWidth": 0,
    "latitude": 9.05,
    "longitude": -79.3666666667,
    "elev": 45,
    "priority": 6,
    "srcid": "mpto"
  },
  {
    "icao": "PAHO",
    "iata": "HOM",
    "synop": 70341,
    "name": "Homer Muni",
    "state": "AK",
    "country": "US",
    "radius": 3,
    "fillKey": "RED",
    "borderWidth": 0,
    "latitude": 59.64,
    "longitude": -151.5,
    "elev": 28,
    "priority": 6,
    "srcid": "hom"
  },
  {
    "icao": "KLVS",
    "iata": "LVS",
    "synop": 0,
    "name": "Las Vegas",
    "state": "NM",
    "country": "US",
    "radius": 3,
    "fillKey": "RED",
    "borderWidth": 0,
    "latitude": 35.66,
    "longitude": -105.15,
    "elev": 2091,
    "priority": 3,
    "srcid": "klvs"
  },
  {
    "icao": "K40B",
    "iata": "40B",
    "synop": 0,
    "name": "Clayton Lake",
    "state": "ME",
    "country": "US",
    "radius": 3,
    "fillKey": "RED",
    "borderWidth": 0,
    "latitude": 46.62,
    "longitude": -69.52,
    "elev": 314,
    "priority": 8,
    "srcid": "k40b"
  },
  {
    "icao": "KVBG",
    "iata": "VBG",
    "synop": 72393,
    "name": "Vandenberg AFB",
    "state": "CA",
    "country": "US",
    "radius": 3,
    "fillKey": "RED",
    "borderWidth": 0,
    "latitude": 34.75,
    "longitude": -120.57,
    "elev": 112,
    "priority": 3,
    "srcid": "vbg"
  },
  {
    "icao": 0,
    "iata": 0,
    "synop": 0,
    "name": "b49",
    "state": 0,
    "country": 0,
    "radius": 3,
    "fillKey": "RED",
    "borderWidth": 0,
    "latitude": 18,
    "longitude": -67.04,
    "elev": 65,
    "priority": 7,
    "srcid": "b49"
  },
  {
    "icao": "KCDS",
    "iata": "CDS",
    "synop": 0,
    "name": "Childress Muni",
    "state": "TX",
    "country": "US",
    "radius": 3,
    "fillKey": "RED",
    "borderWidth": 0,
    "latitude": 34.4275,
    "longitude": -100.284,
    "elev": 594,
    "priority": 3,
    "srcid": "kcds"
  },
  {
    "icao": "KTTD",
    "iata": "TTD",
    "synop": 0,
    "name": "Portland-Troutdale",
    "state": "OR",
    "country": "US",
    "radius": 3,
    "fillKey": "RED",
    "borderWidth": 0,
    "latitude": 45.55,
    "longitude": -122.4,
    "elev": 14,
    "priority": 6,
    "srcid": "kttd"
  },
  {
    "icao": "KBFI",
    "iata": "BFI",
    "synop": 0,
    "name": "Seattle/Boeing Fld/King Co Intl",
    "state": "WA",
    "country": "US",
    "radius": 3,
    "fillKey": "RED",
    "borderWidth": 0,
    "latitude": 47.53,
    "longitude": -122.3,
    "elev": 4,
    "priority": 1,
    "srcid": "kbfi"
  },
  {
    "icao": "KLAS",
    "iata": "LAS",
    "synop": 72386,
    "name": "Las Vegas/Mccarren",
    "state": "NV",
    "country": "US",
    "radius": 3,
    "fillKey": "RED",
    "borderWidth": 0,
    "latitude": 36.09,
    "longitude": -115.17,
    "elev": 636,
    "priority": 2,
    "srcid": "klas"
  },
  {
    "icao": "TNCC",
    "iata": 0,
    "synop": 78988,
    "name": "Hato Airport",
    "state": 0,
    "country": "VI",
    "radius": 3,
    "fillKey": "RED",
    "borderWidth": 0,
    "latitude": 12.2,
    "longitude": -68.97,
    "elev": 9,
    "priority": 8,
    "srcid": "tncc"
  },
  {
    "icao": "KCOD",
    "iata": "COD",
    "synop": 72670,
    "name": "Cody Muni",
    "state": "WY",
    "country": "US",
    "radius": 3,
    "fillKey": "RED",
    "borderWidth": 0,
    "latitude": 44.53,
    "longitude": -109.02,
    "elev": 1553,
    "priority": 3,
    "srcid": "kcod"
  },
  {
    "icao": 0,
    "iata": 0,
    "synop": 0,
    "name": "vanc",
    "state": 0,
    "country": 0,
    "radius": 3,
    "fillKey": "RED",
    "borderWidth": 0,
    "latitude": 45.59,
    "longitude": -67.4,
    "elev": 149,
    "priority": 7,
    "srcid": "vanc"
  },
  {
    "icao": "KJXN",
    "iata": "JXN",
    "synop": 0,
    "name": "Jackson/Reynolds",
    "state": "MI",
    "country": "US",
    "radius": 3,
    "fillKey": "RED",
    "borderWidth": 0,
    "latitude": 42.27,
    "longitude": -84.47,
    "elev": 305,
    "priority": 6,
    "srcid": "kjxn"
  },
  {
    "icao": 0,
    "iata": 0,
    "synop": 0,
    "name": "gvs",
    "state": 0,
    "country": 0,
    "radius": 3,
    "fillKey": "RED",
    "borderWidth": 0,
    "latitude": 40.71,
    "longitude": -86.02,
    "elev": 229,
    "priority": 7,
    "srcid": "gvs"
  },
  {
    "icao": "KLFK",
    "iata": "LFK",
    "synop": 0,
    "name": "Lufkin",
    "state": "TX",
    "country": "US",
    "radius": 3,
    "fillKey": "RED",
    "borderWidth": 0,
    "latitude": 31.23,
    "longitude": -94.75,
    "elev": 88,
    "priority": 6,
    "srcid": "klfk"
  },
  {
    "icao": 0,
    "iata": 0,
    "synop": 0,
    "name": "a#4",
    "state": 0,
    "country": 0,
    "radius": 3,
    "fillKey": "RED",
    "borderWidth": 0,
    "latitude": 60.61,
    "longitude": -173.37,
    "elev": 0,
    "priority": 7,
    "srcid": "a#4"
  },
  {
    "icao": "CYMD",
    "iata": "YMD",
    "synop": 71072,
    "name": "Mould Bay/P Is",
    "state": "NT",
    "country": "CA",
    "radius": 3,
    "fillKey": "RED",
    "borderWidth": 0,
    "latitude": 76.23,
    "longitude": -119.32,
    "elev": 12,
    "priority": 7,
    "srcid": "cymd"
  },
  {
    "icao": "KHSV",
    "iata": "HSV",
    "synop": 72323,
    "name": "Huntsville/Madis",
    "state": "AL",
    "country": "US",
    "radius": 3,
    "fillKey": "RED",
    "borderWidth": 0,
    "latitude": 34.66,
    "longitude": -86.77,
    "elev": 191,
    "priority": 4,
    "srcid": "khsv"
  },
  {
    "icao": "CYJT",
    "iata": "YJT",
    "synop": 71815,
    "name": "Stephenville",
    "state": "NF",
    "country": "CA",
    "radius": 3,
    "fillKey": "RED",
    "borderWidth": 0,
    "latitude": 48.54,
    "longitude": -58.55,
    "elev": 26,
    "priority": 5,
    "srcid": "cyjt"
  },
  {
    "icao": "MDSD",
    "iata": 0,
    "synop": 78485,
    "name": "Caucedo/De Las Amer",
    "state": 0,
    "country": "DO",
    "radius": 3,
    "fillKey": "RED",
    "borderWidth": 0,
    "latitude": 18.43,
    "longitude": -69.67,
    "elev": 18,
    "priority": 6,
    "srcid": "mdsd"
  },
  {
    "icao": "KLGU",
    "iata": "LGU",
    "synop": 0,
    "name": "Logan-Cache",
    "state": "UT",
    "country": "US",
    "radius": 3,
    "fillKey": "RED",
    "borderWidth": 0,
    "latitude": 41.79,
    "longitude": -111.85,
    "elev": 1355,
    "priority": 6,
    "srcid": "klgu"
  },
  {
    "icao": "KU24",
    "iata": "U24",
    "synop": 72479,
    "name": "Delta",
    "state": "UT",
    "country": "US",
    "radius": 3,
    "fillKey": "RED",
    "borderWidth": 0,
    "latitude": 39.34,
    "longitude": -112.59,
    "elev": 1414,
    "priority": 7,
    "srcid": "u24"
  },
  {
    "icao": "KPKB",
    "iata": "PKB",
    "synop": 72427,
    "name": "Parkersburg",
    "state": "WV",
    "country": "US",
    "radius": 3,
    "fillKey": "RED",
    "borderWidth": 0,
    "latitude": 39.36,
    "longitude": -81.43,
    "elev": 262,
    "priority": 6,
    "srcid": "kpkb"
  },
  {
    "icao": "KVSF",
    "iata": "VSF",
    "synop": 0,
    "name": "Springfield St",
    "state": "VT",
    "country": "US",
    "radius": 3,
    "fillKey": "RED",
    "borderWidth": 0,
    "latitude": 43.34,
    "longitude": -72.52,
    "elev": 175,
    "priority": 7,
    "srcid": "vsf"
  },
  {
    "icao": "KSLK",
    "iata": "SLK",
    "synop": 0,
    "name": "Saranac Lake/Adirondack Regnl",
    "state": "NY",
    "country": "US",
    "radius": 3,
    "fillKey": "RED",
    "borderWidth": 0,
    "latitude": 44.39,
    "longitude": -74.21,
    "elev": 498,
    "priority": 6,
    "srcid": "kslk"
  },
  {
    "icao": "PAEI",
    "iata": "EIL",
    "synop": 70265,
    "name": "Eielson AFB",
    "state": "AK",
    "country": "US",
    "radius": 3,
    "fillKey": "RED",
    "borderWidth": 0,
    "latitude": 64.67,
    "longitude": -147.1,
    "elev": 167,
    "priority": 6,
    "srcid": "paei"
  },
  {
    "icao": "KLOR",
    "iata": "LOR",
    "synop": 0,
    "name": "Ft Rucker/Ozark",
    "state": "AL",
    "country": "US",
    "radius": 3,
    "fillKey": "RED",
    "borderWidth": 0,
    "latitude": 31.356,
    "longitude": -85.751,
    "elev": 74,
    "priority": 7,
    "srcid": "lor"
  },
  {
    "icao": "MZBZ",
    "iata": 0,
    "synop": 78583,
    "name": "Belize City",
    "state": 0,
    "country": "BZ",
    "radius": 3,
    "fillKey": "RED",
    "borderWidth": 0,
    "latitude": 17.53,
    "longitude": -88.3,
    "elev": 5,
    "priority": 5,
    "srcid": "mzbz"
  },
  {
    "icao": "KFWD",
    "iata": "FWD",
    "synop": 72249,
    "name": "Fort Worth",
    "state": "TX",
    "country": "US",
    "radius": 3,
    "fillKey": "RED",
    "borderWidth": 0,
    "latitude": 32.8166666667,
    "longitude": -97.2833333333,
    "elev": 196,
    "priority": 8,
    "srcid": "fwd"
  },
  {
    "icao": "KP53",
    "iata": "P53",
    "synop": 0,
    "name": "Munising",
    "state": "MI",
    "country": "US",
    "radius": 3,
    "fillKey": "RED",
    "borderWidth": 0,
    "latitude": 46.412,
    "longitude": -86.651,
    "elev": 187,
    "priority": 7,
    "srcid": "p53"
  },
  {
    "icao": "KEDW",
    "iata": "EDW",
    "synop": 72381,
    "name": "Edwards AFB",
    "state": "CA",
    "country": "US",
    "radius": 3,
    "fillKey": "RED",
    "borderWidth": 0,
    "latitude": 34.91,
    "longitude": -117.87,
    "elev": 702,
    "priority": 3,
    "srcid": "edw"
  },
  {
    "icao": "KPUW",
    "iata": "PUW",
    "synop": 0,
    "name": "Pullman/Moscow Regnl",
    "state": "WA",
    "country": "US",
    "radius": 3,
    "fillKey": "RED",
    "borderWidth": 0,
    "latitude": 46.76,
    "longitude": -117.12,
    "elev": 773,
    "priority": 7,
    "srcid": "kpuw"
  },
  {
    "icao": "KHLN",
    "iata": "HLN",
    "synop": 72772,
    "name": "Helena Rgnl",
    "state": "MT",
    "country": "US",
    "radius": 3,
    "fillKey": "RED",
    "borderWidth": 0,
    "latitude": 46.61,
    "longitude": -112,
    "elev": 1182,
    "priority": 4,
    "srcid": "khln"
  },
  {
    "icao": "CYFS",
    "iata": "YFS",
    "synop": 71946,
    "name": "Fort Simpson",
    "state": "NT",
    "country": "CA",
    "radius": 3,
    "fillKey": "RED",
    "borderWidth": 0,
    "latitude": 61.8,
    "longitude": -121.2,
    "elev": 169,
    "priority": 6,
    "srcid": "cyfs"
  },
  {
    "icao": "KABE",
    "iata": "ABE",
    "synop": 72517,
    "name": "Allentown-Bethlehem",
    "state": "PA",
    "country": "US",
    "radius": 3,
    "fillKey": "RED",
    "borderWidth": 0,
    "latitude": 40.66,
    "longitude": -75.43,
    "elev": 114,
    "priority": 6,
    "srcid": "kabe"
  },
  {
    "icao": "KHVL",
    "iata": "HVL",
    "synop": 74541,
    "name": "Haviland Profile",
    "state": "KS",
    "country": "US",
    "radius": 3,
    "fillKey": "RED",
    "borderWidth": 0,
    "latitude": 37.63,
    "longitude": -99.04,
    "elev": 635,
    "priority": 8,
    "srcid": "p#e"
  },
  {
    "icao": "KALB",
    "iata": "ALB",
    "synop": 72518,
    "name": "Albany County",
    "state": "NY",
    "country": "US",
    "radius": 3,
    "fillKey": "RED",
    "borderWidth": 0,
    "latitude": 42.76,
    "longitude": -73.8,
    "elev": 92,
    "priority": 3,
    "srcid": "kalb"
  },
  {
    "icao": "KAOO",
    "iata": "AOO",
    "synop": 0,
    "name": "Altoona/Blair Co",
    "state": "PA",
    "country": "US",
    "radius": 3,
    "fillKey": "RED",
    "borderWidth": 0,
    "latitude": 40.3,
    "longitude": -78.32,
    "elev": 455,
    "priority": 6,
    "srcid": "kaoo"
  },
  {
    "icao": "KIRK",
    "iata": "IRK",
    "synop": 0,
    "name": "Kirksville Regnl",
    "state": "MO",
    "country": "US",
    "radius": 3,
    "fillKey": "RED",
    "borderWidth": 0,
    "latitude": 40.15,
    "longitude": -92.53,
    "elev": 272,
    "priority": 6,
    "srcid": "kkl"
  },
  {
    "icao": "KVEL",
    "iata": "VEL",
    "synop": 0,
    "name": "Vernal",
    "state": "UT",
    "country": "US",
    "radius": 3,
    "fillKey": "RED",
    "borderWidth": 0,
    "latitude": 40.44,
    "longitude": -109.51,
    "elev": 1604,
    "priority": 6,
    "srcid": "kvel"
  },
  {
    "icao": 0,
    "iata": 0,
    "synop": 0,
    "name": "piko",
    "state": 0,
    "country": 0,
    "radius": 3,
    "fillKey": "RED",
    "borderWidth": 0,
    "latitude": 52.94,
    "longitude": -168.81,
    "elev": 42,
    "priority": 7,
    "srcid": "piko"
  },
  {
    "icao": "KMTJ",
    "iata": "MTJ",
    "synop": 0,
    "name": "Montrose",
    "state": "CO",
    "country": "US",
    "radius": 3,
    "fillKey": "RED",
    "borderWidth": 0,
    "latitude": 38.51,
    "longitude": -107.88,
    "elev": 1750,
    "priority": 6,
    "srcid": "kmtj"
  },
  {
    "icao": 0,
    "iata": 0,
    "synop": 0,
    "name": "mtl",
    "state": 0,
    "country": 0,
    "radius": 3,
    "fillKey": "RED",
    "borderWidth": 0,
    "latitude": 60.06,
    "longitude": -139.95,
    "elev": 1024,
    "priority": 7,
    "srcid": "mtl"
  },
  {
    "icao": 0,
    "iata": 0,
    "synop": 0,
    "name": "s#7",
    "state": 0,
    "country": 0,
    "radius": 3,
    "fillKey": "RED",
    "borderWidth": 0,
    "latitude": 27.98,
    "longitude": -86.94,
    "elev": 0,
    "priority": 7,
    "srcid": "s#7"
  },
  {
    "icao": "KRUT",
    "iata": "RUT",
    "synop": 0,
    "name": "Rutland",
    "state": "VT",
    "country": "US",
    "radius": 3,
    "fillKey": "RED",
    "borderWidth": 0,
    "latitude": 43.54,
    "longitude": -72.95,
    "elev": 240,
    "priority": 7,
    "srcid": "rut"
  },
  {
    "icao": 0,
    "iata": "HBR",
    "synop": 74546,
    "name": "Hillsboro Profil",
    "state": "KS",
    "country": "US",
    "radius": 3,
    "fillKey": "RED",
    "borderWidth": 0,
    "latitude": 38.33,
    "longitude": -97.23,
    "elev": 446,
    "priority": 8,
    "srcid": "p#g"
  },
  {
    "icao": 0,
    "iata": 0,
    "synop": 0,
    "name": "s#3",
    "state": 0,
    "country": 0,
    "radius": 3,
    "fillKey": "RED",
    "borderWidth": 0,
    "latitude": 33.94,
    "longitude": -126.01,
    "elev": 0,
    "priority": 7,
    "srcid": "s#3"
  },
  {
    "icao": "CYPE",
    "iata": "YPE",
    "synop": 71068,
    "name": "Peace River",
    "state": "AB",
    "country": "CA",
    "radius": 3,
    "fillKey": "RED",
    "borderWidth": 0,
    "latitude": 56.23,
    "longitude": -117.45,
    "elev": 571,
    "priority": 6,
    "srcid": "cype"
  },
  {
    "icao": "MMCL",
    "iata": "CUL",
    "synop": 76412,
    "name": "Culiacan",
    "state": 0,
    "country": "MX",
    "radius": 3,
    "fillKey": "RED",
    "borderWidth": 0,
    "latitude": 24.82,
    "longitude": -107.4,
    "elev": 39,
    "priority": 6,
    "srcid": "mmcl"
  },
  {
    "icao": "MMDO",
    "iata": "DGO",
    "synop": 76423,
    "name": "Durango",
    "state": 0,
    "country": "MX",
    "radius": 3,
    "fillKey": "RED",
    "borderWidth": 0,
    "latitude": 24.13,
    "longitude": -104.53,
    "elev": 1857,
    "priority": 1,
    "srcid": "mmdo"
  },
  {
    "icao": "CYQY",
    "iata": "YQY",
    "synop": 71707,
    "name": "Sydney",
    "state": "NS",
    "country": "CA",
    "radius": 3,
    "fillKey": "RED",
    "borderWidth": 0,
    "latitude": 46.18,
    "longitude": -60.05,
    "elev": 62,
    "priority": 6,
    "srcid": "cyqy"
  },
  {
    "icao": "KNKX",
    "iata": "NKX",
    "synop": 72293,
    "name": "Miramar NAS",
    "state": "CA",
    "country": "US",
    "radius": 3,
    "fillKey": "RED",
    "borderWidth": 0,
    "latitude": 32.88,
    "longitude": -117.15,
    "elev": 146,
    "priority": 5,
    "srcid": "nkx"
  },
  {
    "icao": "KPIE",
    "iata": "PIE",
    "synop": 0,
    "name": "St Petersburg/Clearwater Intl",
    "state": "FL",
    "country": "US",
    "radius": 3,
    "fillKey": "RED",
    "borderWidth": 0,
    "latitude": 27.91,
    "longitude": -82.69,
    "elev": 4,
    "priority": 6,
    "srcid": "kpie"
  },
  {
    "icao": "KPBF",
    "iata": "PBF",
    "synop": 0,
    "name": "Pine Bluff/Gridr",
    "state": "AR",
    "country": "US",
    "radius": 3,
    "fillKey": "RED",
    "borderWidth": 0,
    "latitude": 34.18,
    "longitude": -91.93,
    "elev": 62,
    "priority": 6,
    "srcid": "kpbf"
  },
  {
    "icao": 0,
    "iata": 0,
    "synop": 0,
    "name": "icc",
    "state": 0,
    "country": 0,
    "radius": 3,
    "fillKey": "RED",
    "borderWidth": 0,
    "latitude": 70.19,
    "longitude": -161.93,
    "elev": 8,
    "priority": 7,
    "srcid": "icc"
  },
  {
    "icao": 0,
    "iata": 0,
    "synop": 0,
    "name": "b#w",
    "state": 0,
    "country": 0,
    "radius": 3,
    "fillKey": "RED",
    "borderWidth": 0,
    "latitude": 38.54,
    "longitude": -74.69,
    "elev": 0,
    "priority": 7,
    "srcid": "b#w"
  },
  {
    "icao": 0,
    "iata": 0,
    "synop": 0,
    "name": "k4s3",
    "state": 0,
    "country": 0,
    "radius": 3,
    "fillKey": "RED",
    "borderWidth": 0,
    "latitude": 45.37,
    "longitude": -117.31,
    "elev": 1726,
    "priority": 7,
    "srcid": "k4s3"
  },
  {
    "icao": "CYYJ",
    "iata": "YYJ",
    "synop": 71799,
    "name": "Victoria Intl",
    "state": "BC",
    "country": "CA",
    "radius": 3,
    "fillKey": "RED",
    "borderWidth": 0,
    "latitude": 48.66,
    "longitude": -123.43,
    "elev": 19,
    "priority": 6,
    "srcid": "cyyj"
  },
  {
    "icao": 0,
    "iata": 0,
    "synop": 0,
    "name": "a#d",
    "state": 0,
    "country": 0,
    "radius": 3,
    "fillKey": "RED",
    "borderWidth": 0,
    "latitude": 60.51,
    "longitude": -149.82,
    "elev": 667,
    "priority": 7,
    "srcid": "a#d"
  },
  {
    "icao": 0,
    "iata": 0,
    "synop": 0,
    "name": "b#8",
    "state": 0,
    "country": 0,
    "radius": 3,
    "fillKey": "RED",
    "borderWidth": 0,
    "latitude": 27.89,
    "longitude": -94.97,
    "elev": 0,
    "priority": 7,
    "srcid": "b#8"
  },
  {
    "icao": "KPEQ",
    "iata": "PEQ",
    "synop": 0,
    "name": "Pecos",
    "state": "TX",
    "country": "US",
    "radius": 3,
    "fillKey": "RED",
    "borderWidth": 0,
    "latitude": 31.382,
    "longitude": -103.511,
    "elev": 797,
    "priority": 8,
    "srcid": "kpeq"
  },
  {
    "icao": "KEGC",
    "iata": "EGC",
    "synop": 0,
    "name": "Everglades City",
    "state": "FL",
    "country": "US",
    "radius": 3,
    "fillKey": "RED",
    "borderWidth": 0,
    "latitude": 25.89,
    "longitude": -81.32,
    "elev": 2,
    "priority": 7,
    "srcid": "evr"
  },
  {
    "icao": "CYZT",
    "iata": "YZT",
    "synop": 71109,
    "name": "Port Hardy",
    "state": "BC",
    "country": "CA",
    "radius": 3,
    "fillKey": "RED",
    "borderWidth": 0,
    "latitude": 50.69,
    "longitude": -127.37,
    "elev": 22,
    "priority": 0,
    "srcid": "cyzt"
  },
  {
    "icao": "KBFF",
    "iata": "BFF",
    "synop": 72566,
    "name": "Scottsbluff/Heil",
    "state": "NE",
    "country": "US",
    "radius": 3,
    "fillKey": "RED",
    "borderWidth": 0,
    "latitude": 41.88,
    "longitude": -103.6,
    "elev": 1203,
    "priority": 6,
    "srcid": "kbff"
  },
  {
    "icao": 0,
    "iata": 0,
    "synop": 0,
    "name": "b#1",
    "state": 0,
    "country": 0,
    "radius": 3,
    "fillKey": "RED",
    "borderWidth": 0,
    "latitude": 34.87,
    "longitude": -72.99,
    "elev": 0,
    "priority": 7,
    "srcid": "b#1"
  },
  {
    "icao": 0,
    "iata": 0,
    "synop": 0,
    "name": "lo1",
    "state": 0,
    "country": 0,
    "radius": 3,
    "fillKey": "RED",
    "borderWidth": 0,
    "latitude": 43.62,
    "longitude": -77.48,
    "elev": 75,
    "priority": 7,
    "srcid": "lo1"
  },
  {
    "icao": 0,
    "iata": 0,
    "synop": 0,
    "name": "opp7",
    "state": 0,
    "country": 0,
    "radius": 3,
    "fillKey": "RED",
    "borderWidth": 0,
    "latitude": 39.23,
    "longitude": -125.59,
    "elev": 0,
    "priority": 7,
    "srcid": "opp7"
  },
  {
    "icao": "CYQQ",
    "iata": "YQQ",
    "synop": 71893,
    "name": "Comox",
    "state": "BC",
    "country": "CA",
    "radius": 3,
    "fillKey": "RED",
    "borderWidth": 0,
    "latitude": 49.73,
    "longitude": -124.9,
    "elev": 24,
    "priority": 6,
    "srcid": "cyqq"
  },
  {
    "icao": "PAAQ",
    "iata": "PAQ",
    "synop": 70274,
    "name": "Palmer Muni",
    "state": "AK",
    "country": "US",
    "radius": 3,
    "fillKey": "RED",
    "borderWidth": 0,
    "latitude": 61.61,
    "longitude": -149.09,
    "elev": 73,
    "priority": 6,
    "srcid": "paaq"
  },
  {
    "icao": "CYRB",
    "iata": "YRB",
    "synop": 71924,
    "name": "Resolute",
    "state": "NU",
    "country": "CA",
    "radius": 3,
    "fillKey": "RED",
    "borderWidth": 0,
    "latitude": 74.72,
    "longitude": -94.95,
    "elev": 67,
    "priority": 5,
    "srcid": "cyrb"
  },
  {
    "icao": "MMUN",
    "iata": "CUN",
    "synop": 76595,
    "name": "Cancun Intl",
    "state": 0,
    "country": "MX",
    "radius": 3,
    "fillKey": "RED",
    "borderWidth": 0,
    "latitude": 21.03,
    "longitude": -86.87,
    "elev": 10,
    "priority": 1,
    "srcid": "mmun"
  },
  {
    "icao": 0,
    "iata": 0,
    "synop": 0,
    "name": "kna",
    "state": 0,
    "country": 0,
    "radius": 3,
    "fillKey": "RED",
    "borderWidth": 0,
    "latitude": 60.61,
    "longitude": -150.28,
    "elev": 223,
    "priority": 7,
    "srcid": "kna"
  },
  {
    "icao": "KRNT",
    "iata": "RNT",
    "synop": 0,
    "name": "Renton Muni",
    "state": "WA",
    "country": "US",
    "radius": 3,
    "fillKey": "RED",
    "borderWidth": 0,
    "latitude": 47.5,
    "longitude": -122.22,
    "elev": 21,
    "priority": 7,
    "srcid": "krnt"
  },
  {
    "icao": "KBJC",
    "iata": "BJC",
    "synop": 0,
    "name": "Broomfield",
    "state": "CO",
    "country": "US",
    "radius": 3,
    "fillKey": "RED",
    "borderWidth": 0,
    "latitude": 39.909,
    "longitude": -105.117,
    "elev": 1724,
    "priority": 1,
    "srcid": "kbjc"
  },
  {
    "icao": "KTCS",
    "iata": "TCS",
    "synop": 72271,
    "name": "Truth Or Consequences",
    "state": "NM",
    "country": "US",
    "radius": 3,
    "fillKey": "RED",
    "borderWidth": 0,
    "latitude": 33.23,
    "longitude": -107.27,
    "elev": 1469,
    "priority": 6,
    "srcid": "ktcs"
  },
  {
    "icao": "KSTL",
    "iata": "STL",
    "synop": 72434,
    "name": "St. Louis Lambert",
    "state": "MO",
    "country": "US",
    "radius": 3,
    "fillKey": "RED",
    "borderWidth": 0,
    "latitude": 38.76,
    "longitude": -90.37,
    "elev": 171,
    "priority": 0,
    "srcid": "kstl"
  },
  {
    "icao": "KPNC",
    "iata": "PNC",
    "synop": 0,
    "name": "Ponca City",
    "state": "OK",
    "country": "US",
    "radius": 3,
    "fillKey": "RED",
    "borderWidth": 0,
    "latitude": 36.73,
    "longitude": -97.1,
    "elev": 308,
    "priority": 6,
    "srcid": "kpnc"
  },
  {
    "icao": "KBOI",
    "iata": "BOI",
    "synop": 72681,
    "name": "Boise",
    "state": "ID",
    "country": "US",
    "radius": 3,
    "fillKey": "RED",
    "borderWidth": 0,
    "latitude": 43.58,
    "longitude": -116.22,
    "elev": 875,
    "priority": 0,
    "srcid": "kboi"
  },
  {
    "icao": "KELO",
    "iata": "ELO",
    "synop": 0,
    "name": "Ely",
    "state": "MN",
    "country": "US",
    "radius": 3,
    "fillKey": "RED",
    "borderWidth": 0,
    "latitude": 47.91,
    "longitude": -91.82,
    "elev": 443,
    "priority": 7,
    "srcid": "kelo"
  },
  {
    "icao": "KCON",
    "iata": "CON",
    "synop": 72605,
    "name": "Concord Muni",
    "state": "NH",
    "country": "US",
    "radius": 3,
    "fillKey": "RED",
    "borderWidth": 0,
    "latitude": 43.21,
    "longitude": -71.5,
    "elev": 103,
    "priority": 6,
    "srcid": "kcon"
  },
  {
    "icao": "KOAJ",
    "iata": "OAJ",
    "synop": 0,
    "name": "Jacksonville/Ellis",
    "state": "NC",
    "country": "US",
    "radius": 3,
    "fillKey": "RED",
    "borderWidth": 0,
    "latitude": 34.83,
    "longitude": -77.62,
    "elev": 29,
    "priority": 7,
    "srcid": "koaj"
  },
  {
    "icao": "PATL",
    "iata": "TLJ",
    "synop": 0,
    "name": "Tatalina",
    "state": "AK",
    "country": "US",
    "radius": 3,
    "fillKey": "RED",
    "borderWidth": 0,
    "latitude": 62.91,
    "longitude": -155.99,
    "elev": 294,
    "priority": 6,
    "srcid": "patl"
  },
  {
    "icao": "UHMA",
    "iata": 0,
    "synop": 25563,
    "name": "Anadyr'",
    "state": "HA",
    "country": "RU",
    "radius": 3,
    "fillKey": "RED",
    "borderWidth": 0,
    "latitude": 64.78,
    "longitude": 177.57,
    "elev": 62,
    "priority": 6,
    "srcid": "uhma"
  },
  {
    "icao": 0,
    "iata": "TCU",
    "synop": 74731,
    "name": "Tucumcari Profil",
    "state": "NM",
    "country": "US",
    "radius": 3,
    "fillKey": "RED",
    "borderWidth": 0,
    "latitude": 35.06,
    "longitude": -103.6,
    "elev": 1268,
    "priority": 8,
    "srcid": "p#s"
  },
  {
    "icao": "KLWM",
    "iata": "LWM",
    "synop": 0,
    "name": "Lawrence",
    "state": "MA",
    "country": "US",
    "radius": 3,
    "fillKey": "RED",
    "borderWidth": 0,
    "latitude": 42.73,
    "longitude": -71.12,
    "elev": 54,
    "priority": 7,
    "srcid": "klwm"
  },
  {
    "icao": "K87Q",
    "iata": "87Q",
    "synop": 72390,
    "name": "Punta Piedras",
    "state": "CA",
    "country": "US",
    "radius": 3,
    "fillKey": "RED",
    "borderWidth": 0,
    "latitude": 35.76,
    "longitude": -121.28,
    "elev": 262,
    "priority": 7,
    "srcid": "ppb"
  },
  {
    "icao": "MUGM",
    "iata": 0,
    "synop": 78367,
    "name": "Guantanamo Bay",
    "state": "CU",
    "country": "CU",
    "radius": 3,
    "fillKey": "RED",
    "borderWidth": 0,
    "latitude": 19.906,
    "longitude": -75.207,
    "elev": 17,
    "priority": 6,
    "srcid": "mugm"
  },
  {
    "icao": "KLOL",
    "iata": "LOL",
    "synop": 72580,
    "name": "Lovelock/Darby",
    "state": "NV",
    "country": "US",
    "radius": 3,
    "fillKey": "RED",
    "borderWidth": 0,
    "latitude": 40.08,
    "longitude": -118.55,
    "elev": 1189,
    "priority": 6,
    "srcid": "klol"
  },
  {
    "icao": "KRCZ",
    "iata": "RCZ",
    "synop": 0,
    "name": "Rockingham",
    "state": "NC",
    "country": "US",
    "radius": 3,
    "fillKey": "RED",
    "borderWidth": 0,
    "latitude": 34.891,
    "longitude": -79.759,
    "elev": 109,
    "priority": 7,
    "srcid": "krcz"
  },
  {
    "icao": "KCEC",
    "iata": "CEC",
    "synop": 0,
    "name": "Crescent City",
    "state": "CA",
    "country": "US",
    "radius": 3,
    "fillKey": "RED",
    "borderWidth": 0,
    "latitude": 41.79,
    "longitude": -124.24,
    "elev": 17,
    "priority": 6,
    "srcid": "kcec"
  },
  {
    "icao": 0,
    "iata": 0,
    "synop": 0,
    "name": "appl",
    "state": 0,
    "country": 0,
    "radius": 3,
    "fillKey": "RED",
    "borderWidth": 0,
    "latitude": 43.03,
    "longitude": -70.6,
    "elev": 0,
    "priority": 7,
    "srcid": "appl"
  },
  {
    "icao": "KGNV",
    "iata": "GNV",
    "synop": 0,
    "name": "Gainesville Regnl",
    "state": "FL",
    "country": "US",
    "radius": 3,
    "fillKey": "RED",
    "borderWidth": 0,
    "latitude": 29.68,
    "longitude": -82.27,
    "elev": 45,
    "priority": 4,
    "srcid": "kgnv"
  },
  {
    "icao": "KALS",
    "iata": "ALS",
    "synop": 72462,
    "name": "Alamosa Muni",
    "state": "CO",
    "country": "US",
    "radius": 3,
    "fillKey": "RED",
    "borderWidth": 0,
    "latitude": 37.46,
    "longitude": -105.87,
    "elev": 2299,
    "priority": 6,
    "srcid": "kals"
  },
  {
    "icao": "CYFB",
    "iata": "YFB",
    "synop": 71909,
    "name": "Frobisher/Iqaluit",
    "state": "NU",
    "country": "CA",
    "radius": 3,
    "fillKey": "RED",
    "borderWidth": 0,
    "latitude": 63.76,
    "longitude": -68.54,
    "elev": 34,
    "priority": 5,
    "srcid": "cyfb"
  },
  {
    "icao": 0,
    "iata": 0,
    "synop": 0,
    "name": "opp6",
    "state": 0,
    "country": 0,
    "radius": 3,
    "fillKey": "RED",
    "borderWidth": 0,
    "latitude": 41.89,
    "longitude": -125.75,
    "elev": 0,
    "priority": 7,
    "srcid": "opp6"
  },
  {
    "icao": "KLAX",
    "iata": "LAX",
    "synop": 72295,
    "name": "Los Angeles Intl",
    "state": "CA",
    "country": "US",
    "radius": 3,
    "fillKey": "RED",
    "borderWidth": 0,
    "latitude": 33.94,
    "longitude": -118.4,
    "elev": 46,
    "priority": 0,
    "srcid": "klax"
  },
  {
    "icao": "KBRD",
    "iata": "BRD",
    "synop": 0,
    "name": "Brainerd/Crow Wg",
    "state": "MN",
    "country": "US",
    "radius": 3,
    "fillKey": "RED",
    "borderWidth": 0,
    "latitude": 46.4,
    "longitude": -94.13,
    "elev": 372,
    "priority": 4,
    "srcid": "kbrd"
  },
  {
    "icao": "CYCX",
    "iata": "YCX",
    "synop": 71701,
    "name": "Gagetown",
    "state": "NB",
    "country": "CA",
    "radius": 3,
    "fillKey": "RED",
    "borderWidth": 0,
    "latitude": 45.84,
    "longitude": -66.43,
    "elev": 51,
    "priority": 6,
    "srcid": "cycx"
  },
  {
    "icao": 0,
    "iata": 0,
    "synop": 0,
    "name": "mch",
    "state": 0,
    "country": 0,
    "radius": 3,
    "fillKey": "RED",
    "borderWidth": 0,
    "latitude": 35.43,
    "longitude": -86.06,
    "elev": 337,
    "priority": 7,
    "srcid": "mch"
  },
  {
    "icao": "KSTF",
    "iata": "STF",
    "synop": 0,
    "name": "Starkville",
    "state": "MS",
    "country": "US",
    "radius": 3,
    "fillKey": "RED",
    "borderWidth": 0,
    "latitude": 33.49,
    "longitude": -88.84,
    "elev": 83,
    "priority": 8,
    "srcid": "stv"
  },
  {
    "icao": "PAFM",
    "iata": "AFM",
    "synop": 0,
    "name": "Ambler",
    "state": "AK",
    "country": "US",
    "radius": 3,
    "fillKey": "RED",
    "borderWidth": 0,
    "latitude": 67.1,
    "longitude": -157.85,
    "elev": 88,
    "priority": 7,
    "srcid": "pafm"
  },
  {
    "icao": "KOTX",
    "iata": "OTX",
    "synop": 72786,
    "name": "Spokane Intl",
    "state": "WA",
    "country": "US",
    "radius": 3,
    "fillKey": "RED",
    "borderWidth": 0,
    "latitude": 47.68,
    "longitude": -117.63,
    "elev": 727,
    "priority": 8,
    "srcid": "kotx"
  },
  {
    "icao": "MTCH",
    "iata": 0,
    "synop": 78409,
    "name": "Cap-Haitien",
    "state": 0,
    "country": "HT",
    "radius": 3,
    "fillKey": "RED",
    "borderWidth": 0,
    "latitude": 19.75,
    "longitude": -72.1833333333,
    "elev": 2,
    "priority": 5,
    "srcid": "mtch"
  },
  {
    "icao": 0,
    "iata": 0,
    "synop": 0,
    "name": "3j2",
    "state": 0,
    "country": 0,
    "radius": 3,
    "fillKey": "RED",
    "borderWidth": 0,
    "latitude": 30.99,
    "longitude": -78.95,
    "elev": 0,
    "priority": 7,
    "srcid": "3j2"
  },
  {
    "icao": "KCOU",
    "iata": "COU",
    "synop": 72445,
    "name": "Columbia Rgnl",
    "state": "MO",
    "country": "US",
    "radius": 3,
    "fillKey": "RED",
    "borderWidth": 0,
    "latitude": 38.83,
    "longitude": -92.22,
    "elev": 271,
    "priority": 4,
    "srcid": "kcou"
  },
  {
    "icao": 0,
    "iata": 0,
    "synop": 0,
    "name": "b#7",
    "state": 0,
    "country": 0,
    "radius": 3,
    "fillKey": "RED",
    "borderWidth": 0,
    "latitude": 25.89,
    "longitude": -85.92,
    "elev": 0,
    "priority": 7,
    "srcid": "b#7"
  },
  {
    "icao": "KBHM",
    "iata": "BHM",
    "synop": 72228,
    "name": "Birmingham Intl",
    "state": "AL",
    "country": "US",
    "radius": 3,
    "fillKey": "RED",
    "borderWidth": 0,
    "latitude": 33.56,
    "longitude": -86.75,
    "elev": 197,
    "priority": 4,
    "srcid": "kbhm"
  },
  {
    "icao": "KLGA",
    "iata": "LGA",
    "synop": 72503,
    "name": "New York/La Guardia",
    "state": "NY",
    "country": "US",
    "radius": 3,
    "fillKey": "RED",
    "borderWidth": 0,
    "latitude": 40.78,
    "longitude": -73.88,
    "elev": 11,
    "priority": 1,
    "srcid": "klga"
  },
  {
    "icao": 0,
    "iata": 0,
    "synop": 0,
    "name": "lsy",
    "state": 0,
    "country": 0,
    "radius": 3,
    "fillKey": "RED",
    "borderWidth": 0,
    "latitude": 36.24,
    "longitude": -119.12,
    "elev": 90,
    "priority": 7,
    "srcid": "lsy"
  },
  {
    "icao": 0,
    "iata": 0,
    "synop": 0,
    "name": "b#d",
    "state": 0,
    "country": 0,
    "radius": 3,
    "fillKey": "RED",
    "borderWidth": 0,
    "latitude": 42.47,
    "longitude": -130.42,
    "elev": 0,
    "priority": 7,
    "srcid": "b#d"
  },
  {
    "icao": 0,
    "iata": 0,
    "synop": 0,
    "name": "lh2",
    "state": 0,
    "country": 0,
    "radius": 3,
    "fillKey": "RED",
    "borderWidth": 0,
    "latitude": 44.27,
    "longitude": -82.35,
    "elev": 176,
    "priority": 7,
    "srcid": "lh2"
  },
  {
    "icao": "KVIH",
    "iata": "VIH",
    "synop": 0,
    "name": "Vichy/Rolla",
    "state": "MO",
    "country": "US",
    "radius": 3,
    "fillKey": "RED",
    "borderWidth": 0,
    "latitude": 38.14,
    "longitude": -91.77,
    "elev": 333,
    "priority": 7,
    "srcid": "vih"
  },
  {
    "icao": 0,
    "iata": 0,
    "synop": 0,
    "name": "b#b",
    "state": 0,
    "country": 0,
    "radius": 3,
    "fillKey": "RED",
    "borderWidth": 0,
    "latitude": 41.11,
    "longitude": -66.63,
    "elev": 0,
    "priority": 7,
    "srcid": "b#b"
  },
  {
    "icao": "KBFL",
    "iata": "BFL",
    "synop": 72384,
    "name": "Bakersfield/Mead",
    "state": "CA",
    "country": "US",
    "radius": 3,
    "fillKey": "RED",
    "borderWidth": 0,
    "latitude": 35.43,
    "longitude": -119.05,
    "elev": 151,
    "priority": 6,
    "srcid": "bfl"
  },
  {
    "icao": "KBCE",
    "iata": "BCE",
    "synop": 0,
    "name": "Bryce Canyon",
    "state": "UT",
    "country": "US",
    "radius": 3,
    "fillKey": "RED",
    "borderWidth": 0,
    "latitude": 37.71,
    "longitude": -112.16,
    "elev": 2312,
    "priority": 6,
    "srcid": "kbce"
  },
  {
    "icao": "KAAT",
    "iata": "AAT",
    "synop": 0,
    "name": "Alturas Muni",
    "state": "CA",
    "country": "US",
    "radius": 3,
    "fillKey": "RED",
    "borderWidth": 0,
    "latitude": 41.491,
    "longitude": -120.564,
    "elev": 1331,
    "priority": 7,
    "srcid": "kaat"
  },
  {
    "icao": "CYZS",
    "iata": "YZS",
    "synop": 71915,
    "name": "Coral Harbour",
    "state": "NU",
    "country": "CA",
    "radius": 3,
    "fillKey": "RED",
    "borderWidth": 0,
    "latitude": 64.2,
    "longitude": -83.37,
    "elev": 64,
    "priority": 5,
    "srcid": "cyzs"
  },
  {
    "icao": "KRUM",
    "iata": "RUM",
    "synop": 72618,
    "name": "Rumford",
    "state": "ME",
    "country": "US",
    "radius": 3,
    "fillKey": "RED",
    "borderWidth": 0,
    "latitude": 44.54,
    "longitude": -70.53,
    "elev": 207,
    "priority": 8,
    "srcid": "krum"
  },
  {
    "icao": "KUKI",
    "iata": "UKI",
    "synop": 0,
    "name": "Ukiah",
    "state": "CA",
    "country": "US",
    "radius": 3,
    "fillKey": "RED",
    "borderWidth": 0,
    "latitude": 39.14,
    "longitude": -123.2,
    "elev": 187,
    "priority": 6,
    "srcid": "kuki"
  },
  {
    "icao": 0,
    "iata": 0,
    "synop": 0,
    "name": "ls1",
    "state": 0,
    "country": 0,
    "radius": 3,
    "fillKey": "RED",
    "borderWidth": 0,
    "latitude": 48,
    "longitude": -87.71,
    "elev": 183,
    "priority": 7,
    "srcid": "ls1"
  },
  {
    "icao": "BGTL",
    "iata": 0,
    "synop": 4202,
    "name": "Thule Ab",
    "state": 0,
    "country": "GL",
    "radius": 3,
    "fillKey": "RED",
    "borderWidth": 0,
    "latitude": 76.5333333333,
    "longitude": -68.7,
    "elev": 77,
    "priority": 6,
    "srcid": "bgtl"
  },
  {
    "icao": "KMVL",
    "iata": "MVL",
    "synop": 0,
    "name": "Morrisville",
    "state": "VT",
    "country": "US",
    "radius": 3,
    "fillKey": "RED",
    "borderWidth": 0,
    "latitude": 44.53,
    "longitude": -72.61,
    "elev": 234,
    "priority": 7,
    "srcid": "kmvl"
  },
  {
    "icao": "KAVL",
    "iata": "AVL",
    "synop": 72315,
    "name": "Asheville Rgnl",
    "state": "NC",
    "country": "US",
    "radius": 3,
    "fillKey": "RED",
    "borderWidth": 0,
    "latitude": 35.44,
    "longitude": -82.55,
    "elev": 670,
    "priority": 4,
    "srcid": "kavl"
  },
  {
    "icao": 0,
    "iata": 0,
    "synop": 0,
    "name": "won",
    "state": 0,
    "country": 0,
    "radius": 3,
    "fillKey": "RED",
    "borderWidth": 0,
    "latitude": 63.48,
    "longitude": -150.86,
    "elev": 715,
    "priority": 7,
    "srcid": "won"
  },
  {
    "icao": 0,
    "iata": 0,
    "synop": 0,
    "name": "b47",
    "state": 0,
    "country": 0,
    "radius": 3,
    "fillKey": "RED",
    "borderWidth": 0,
    "latitude": 29.83,
    "longitude": -91.59,
    "elev": 1,
    "priority": 7,
    "srcid": "b47"
  },
  {
    "icao": "KCRW",
    "iata": "CRW",
    "synop": 72414,
    "name": "Charleston/Kanaw",
    "state": "WV",
    "country": "US",
    "radius": 3,
    "fillKey": "RED",
    "borderWidth": 0,
    "latitude": 38.38,
    "longitude": -81.6,
    "elev": 309,
    "priority": 6,
    "srcid": "kcrw"
  },
  {
    "icao": "KPRC",
    "iata": "PRC",
    "synop": 0,
    "name": "Prescott/Ernest A Love Fld",
    "state": "AZ",
    "country": "US",
    "radius": 3,
    "fillKey": "RED",
    "borderWidth": 0,
    "latitude": 34.65,
    "longitude": -112.42,
    "elev": 1524,
    "priority": 3,
    "srcid": "prc"
  },
  {
    "icao": "CYMO",
    "iata": "YMO",
    "synop": 71836,
    "name": "Moosonee",
    "state": "ON",
    "country": "CA",
    "radius": 3,
    "fillKey": "RED",
    "borderWidth": 0,
    "latitude": 51.289,
    "longitude": -80.614,
    "elev": 10,
    "priority": 5,
    "srcid": "cymo"
  },
  {
    "icao": 0,
    "iata": 0,
    "synop": 0,
    "name": "ftr",
    "state": 0,
    "country": 0,
    "radius": 3,
    "fillKey": "RED",
    "borderWidth": 0,
    "latitude": 62.53,
    "longitude": -106.95,
    "elev": 357,
    "priority": 7,
    "srcid": "ftr"
  },
  {
    "icao": "PAEG",
    "iata": "EAA",
    "synop": 0,
    "name": "Eagle",
    "state": "AK",
    "country": "US",
    "radius": 3,
    "fillKey": "RED",
    "borderWidth": 0,
    "latitude": 64.78,
    "longitude": -141.15,
    "elev": 268,
    "priority": 7,
    "srcid": "paeg"
  },
  {
    "icao": 0,
    "iata": 0,
    "synop": 0,
    "name": "estc",
    "state": 0,
    "country": 0,
    "radius": 3,
    "fillKey": "RED",
    "borderWidth": 0,
    "latitude": 47.43,
    "longitude": -69.25,
    "elev": 384,
    "priority": 7,
    "srcid": "estc"
  },
  {
    "icao": 0,
    "iata": 0,
    "synop": 0,
    "name": "w#n",
    "state": 0,
    "country": 0,
    "radius": 3,
    "fillKey": "RED",
    "borderWidth": 0,
    "latitude": 37.43,
    "longitude": -96.92,
    "elev": 395,
    "priority": 7,
    "srcid": "w#n"
  },
  {
    "icao": 0,
    "iata": 0,
    "synop": 0,
    "name": "ftsr",
    "state": 0,
    "country": 0,
    "radius": 3,
    "fillKey": "RED",
    "borderWidth": 0,
    "latitude": 34.43,
    "longitude": -104.2,
    "elev": 1277,
    "priority": 7,
    "srcid": "ftsr"
  },
  {
    "icao": "KMHS",
    "iata": "MHS",
    "synop": 72595,
    "name": "Mount Shasta",
    "state": "CA",
    "country": "US",
    "radius": 3,
    "fillKey": "RED",
    "borderWidth": 0,
    "latitude": 41.33,
    "longitude": -122.32,
    "elev": 1078,
    "priority": 7,
    "srcid": "mhs"
  },
  {
    "icao": 0,
    "iata": 0,
    "synop": 0,
    "name": "can",
    "state": 0,
    "country": 0,
    "radius": 3,
    "fillKey": "RED",
    "borderWidth": 0,
    "latitude": 42.07,
    "longitude": -73.19,
    "elev": 386,
    "priority": 7,
    "srcid": "can"
  },
  {
    "icao": "KOGS",
    "iata": "OGS",
    "synop": 0,
    "name": "Ogdensburg",
    "state": "NY",
    "country": "US",
    "radius": 3,
    "fillKey": "RED",
    "borderWidth": 0,
    "latitude": 44.69,
    "longitude": -75.4,
    "elev": 91,
    "priority": 7,
    "srcid": "ogs"
  },
  {
    "icao": "CYSJ",
    "iata": "YSJ",
    "synop": 71609,
    "name": "Saint John",
    "state": "NB",
    "country": "CA",
    "radius": 3,
    "fillKey": "RED",
    "borderWidth": 0,
    "latitude": 45.33,
    "longitude": -65.88,
    "elev": 109,
    "priority": 6,
    "srcid": "cysj"
  },
  {
    "icao": "CYVO",
    "iata": "YVO",
    "synop": 71725,
    "name": "Val D'Or",
    "state": "QB",
    "country": "CA",
    "radius": 3,
    "fillKey": "RED",
    "borderWidth": 0,
    "latitude": 48.05,
    "longitude": -77.78,
    "elev": 337,
    "priority": 6,
    "srcid": "cyvo"
  },
  {
    "icao": "KDOV",
    "iata": "DOV",
    "synop": 0,
    "name": "Dover AFB",
    "state": "DE",
    "country": "US",
    "radius": 3,
    "fillKey": "RED",
    "borderWidth": 0,
    "latitude": 39.14,
    "longitude": -75.47,
    "elev": 9,
    "priority": 6,
    "srcid": "dov"
  },
  {
    "icao": "KCAE",
    "iata": "CAE",
    "synop": 72310,
    "name": "Columbia Metro",
    "state": "SC",
    "country": "US",
    "radius": 3,
    "fillKey": "RED",
    "borderWidth": 0,
    "latitude": 33.96,
    "longitude": -81.12,
    "elev": 70,
    "priority": 3,
    "srcid": "kcae"
  },
  {
    "icao": 0,
    "iata": 0,
    "synop": 0,
    "name": "b#v",
    "state": 0,
    "country": 0,
    "radius": 3,
    "fillKey": "RED",
    "borderWidth": 0,
    "latitude": 40.68,
    "longitude": -72.07,
    "elev": 0,
    "priority": 7,
    "srcid": "b#v"
  },
  {
    "icao": "KACK",
    "iata": "ACK",
    "synop": 72506,
    "name": "Nantucket Memorial",
    "state": "MA",
    "country": "US",
    "radius": 3,
    "fillKey": "RED",
    "borderWidth": 0,
    "latitude": 41.26,
    "longitude": -70.07,
    "elev": 16,
    "priority": 2,
    "srcid": "kack"
  },
  {
    "icao": "SVMI",
    "iata": 0,
    "synop": 80415,
    "name": "Caracas/S. Boliv",
    "state": 0,
    "country": "VE",
    "radius": 3,
    "fillKey": "RED",
    "borderWidth": 0,
    "latitude": 10.5833333333,
    "longitude": -67,
    "elev": 48,
    "priority": 6,
    "srcid": "svmi"
  },
  {
    "icao": "KJAN",
    "iata": "JAN",
    "synop": 72235,
    "name": "Jackson/Thompson",
    "state": "MS",
    "country": "US",
    "radius": 3,
    "fillKey": "RED",
    "borderWidth": 0,
    "latitude": 32.33,
    "longitude": -90.08,
    "elev": 91,
    "priority": 3,
    "srcid": "kjan"
  },
  {
    "icao": "MNMG",
    "iata": 0,
    "synop": 78741,
    "name": "Managua/Augusto",
    "state": 0,
    "country": "NI",
    "radius": 3,
    "fillKey": "RED",
    "borderWidth": 0,
    "latitude": 12.15,
    "longitude": -86.1666666667,
    "elev": 59,
    "priority": 6,
    "srcid": "mnmg"
  },
  {
    "icao": "CYVQ",
    "iata": "YVQ",
    "synop": 71043,
    "name": "Norman Wells",
    "state": "NT",
    "country": "CA",
    "radius": 3,
    "fillKey": "RED",
    "borderWidth": 0,
    "latitude": 65.28,
    "longitude": -126.8,
    "elev": 74,
    "priority": 5,
    "srcid": "cyvq"
  },
  {
    "icao": 0,
    "iata": 0,
    "synop": 0,
    "name": "b#f",
    "state": 0,
    "country": 0,
    "radius": 3,
    "fillKey": "RED",
    "borderWidth": 0,
    "latitude": 46.12,
    "longitude": -130.96,
    "elev": 0,
    "priority": 7,
    "srcid": "b#f"
  },
  {
    "icao": "MMAA",
    "iata": "ACA",
    "synop": 0,
    "name": "Acapulco/Gen Alvarez",
    "state": 0,
    "country": "MX",
    "radius": 3,
    "fillKey": "RED",
    "borderWidth": 0,
    "latitude": 16.77,
    "longitude": -99.75,
    "elev": 5,
    "priority": 3,
    "srcid": "mmaa"
  },
  {
    "icao": "KTYS",
    "iata": "TYS",
    "synop": 72326,
    "name": "Knoxville Muni",
    "state": "TN",
    "country": "US",
    "radius": 3,
    "fillKey": "RED",
    "borderWidth": 0,
    "latitude": 35.81,
    "longitude": -83.98,
    "elev": 302,
    "priority": 4,
    "srcid": "ktys"
  },
  {
    "icao": "KJST",
    "iata": "JST",
    "synop": 0,
    "name": "Johnstown",
    "state": "PA",
    "country": "US",
    "radius": 3,
    "fillKey": "RED",
    "borderWidth": 0,
    "latitude": 40.33,
    "longitude": -78.83,
    "elev": 694,
    "priority": 6,
    "srcid": "kjst"
  },
  {
    "icao": "KLEE",
    "iata": "LEE",
    "synop": 0,
    "name": "Leesburg Muni",
    "state": "FL",
    "country": "US",
    "radius": 3,
    "fillKey": "RED",
    "borderWidth": 0,
    "latitude": 28.82,
    "longitude": -81.81,
    "elev": 23,
    "priority": 7,
    "srcid": "klee"
  },
  {
    "icao": "KSUX",
    "iata": "SUX",
    "synop": 72557,
    "name": "Sioux City Muni",
    "state": "IA",
    "country": "US",
    "radius": 3,
    "fillKey": "RED",
    "borderWidth": 0,
    "latitude": 42.41,
    "longitude": -96.38,
    "elev": 338,
    "priority": 3,
    "srcid": "ksux"
  },
  {
    "icao": 0,
    "iata": 0,
    "synop": 0,
    "name": "uhaz",
    "state": 0,
    "country": 0,
    "radius": 3,
    "fillKey": "RED",
    "borderWidth": 0,
    "latitude": 64.67,
    "longitude": 177.47,
    "elev": 36,
    "priority": 7,
    "srcid": "uhaz"
  },
  {
    "icao": "KGVL",
    "iata": "GVL",
    "synop": 0,
    "name": "Gainsvil/Gilmer",
    "state": "GA",
    "country": "US",
    "radius": 3,
    "fillKey": "RED",
    "borderWidth": 0,
    "latitude": 34.26,
    "longitude": -83.83,
    "elev": 386,
    "priority": 7,
    "srcid": "gvl"
  },
  {
    "icao": "PAUN",
    "iata": "UNK",
    "synop": 70207,
    "name": "Unalakleet",
    "state": "AK",
    "country": "US",
    "radius": 3,
    "fillKey": "RED",
    "borderWidth": 0,
    "latitude": 63.89,
    "longitude": -160.81,
    "elev": 6,
    "priority": 6,
    "srcid": "paun"
  },
  {
    "icao": "KHYR",
    "iata": "HYR",
    "synop": 0,
    "name": "Hayward",
    "state": "WI",
    "country": "US",
    "radius": 3,
    "fillKey": "RED",
    "borderWidth": 0,
    "latitude": 46.025,
    "longitude": -91.444,
    "elev": 370,
    "priority": 6,
    "srcid": "hyr"
  },
  {
    "icao": "KSUS",
    "iata": "SUS",
    "synop": 0,
    "name": "St Louis/Spirit",
    "state": "MO",
    "country": "US",
    "radius": 3,
    "fillKey": "RED",
    "borderWidth": 0,
    "latitude": 38.66,
    "longitude": -90.63,
    "elev": 141,
    "priority": 3,
    "srcid": "ksus"
  },
  {
    "icao": 0,
    "iata": 0,
    "synop": 76256,
    "name": "Empalme",
    "state": 0,
    "country": "MX",
    "radius": 3,
    "fillKey": "RED",
    "borderWidth": 0,
    "latitude": 27.95,
    "longitude": -110.766666667,
    "elev": 12,
    "priority": 8,
    "srcid": "emp"
  },
  {
    "icao": 0,
    "iata": 0,
    "synop": 0,
    "name": "col2",
    "state": 0,
    "country": 0,
    "radius": 3,
    "fillKey": "RED",
    "borderWidth": 0,
    "latitude": 45.67,
    "longitude": -121.57,
    "elev": 473,
    "priority": 7,
    "srcid": "col2"
  },
  {
    "icao": "KMHX",
    "iata": "MHX",
    "synop": 72305,
    "name": "Morehead/Newport",
    "state": "NC",
    "country": "US",
    "radius": 3,
    "fillKey": "RED",
    "borderWidth": 0,
    "latitude": 34.7666666667,
    "longitude": -76.8666666667,
    "elev": 9,
    "priority": 8,
    "srcid": "kmhx"
  },
  {
    "icao": "PADL",
    "iata": "DLG",
    "synop": 70321,
    "name": "Dillingham",
    "state": "AK",
    "country": "US",
    "radius": 3,
    "fillKey": "RED",
    "borderWidth": 0,
    "latitude": 59.05,
    "longitude": -158.52,
    "elev": 26,
    "priority": 6,
    "srcid": "padl"
  },
  {
    "icao": 0,
    "iata": 0,
    "synop": 0,
    "name": "a#8",
    "state": 0,
    "country": 0,
    "radius": 3,
    "fillKey": "RED",
    "borderWidth": 0,
    "latitude": 51.13,
    "longitude": -147.47,
    "elev": 0,
    "priority": 7,
    "srcid": "a#8"
  },
  {
    "icao": "PATA",
    "iata": "TAL",
    "synop": 70178,
    "name": "Tanana/Calhoun Mem",
    "state": "AK",
    "country": "US",
    "radius": 3,
    "fillKey": "RED",
    "borderWidth": 0,
    "latitude": 65.17,
    "longitude": -152.1,
    "elev": 67,
    "priority": 6,
    "srcid": "pata"
  },
  {
    "icao": "KGJT",
    "iata": "GJT",
    "synop": 72476,
    "name": "Grand Junction",
    "state": "CO",
    "country": "US",
    "radius": 3,
    "fillKey": "RED",
    "borderWidth": 0,
    "latitude": 39.12,
    "longitude": -108.53,
    "elev": 1475,
    "priority": 2,
    "srcid": "kgjt"
  },
  {
    "icao": "KPUB",
    "iata": "PUB",
    "synop": 72464,
    "name": "Pueblo Memorial",
    "state": "CO",
    "country": "US",
    "radius": 3,
    "fillKey": "RED",
    "borderWidth": 0,
    "latitude": 38.29,
    "longitude": -104.52,
    "elev": 1420,
    "priority": 3,
    "srcid": "kpub"
  },
  {
    "icao": "KP38",
    "iata": "P38",
    "synop": 72487,
    "name": "Caliente",
    "state": "NV",
    "country": "US",
    "radius": 3,
    "fillKey": "RED",
    "borderWidth": 0,
    "latitude": 37.62,
    "longitude": -114.52,
    "elev": 1333,
    "priority": 8,
    "srcid": "kp38"
  },
  {
    "icao": 0,
    "iata": 0,
    "synop": 0,
    "name": "mcr",
    "state": 0,
    "country": 0,
    "radius": 3,
    "fillKey": "RED",
    "borderWidth": 0,
    "latitude": 32.08,
    "longitude": -82.96,
    "elev": 75,
    "priority": 7,
    "srcid": "mcr"
  },
  {
    "icao": "MYEG",
    "iata": 0,
    "synop": 78092,
    "name": "George Town",
    "state": "Exuma",
    "country": "BS",
    "radius": 3,
    "fillKey": "RED",
    "borderWidth": 0,
    "latitude": 23.5,
    "longitude": -75.766,
    "elev": 3,
    "priority": 7,
    "srcid": "myeg"
  },
  {
    "icao": "MMMZ",
    "iata": "MZT",
    "synop": 0,
    "name": "Mazatlan/Gen Buelna",
    "state": 0,
    "country": "MX",
    "radius": 3,
    "fillKey": "RED",
    "borderWidth": 0,
    "latitude": 23.17,
    "longitude": -106.27,
    "elev": 10,
    "priority": 5,
    "srcid": "mzt"
  },
  {
    "icao": "KSFF",
    "iata": "SFF",
    "synop": 0,
    "name": "Spokane/Felts Fld",
    "state": "WA",
    "country": "US",
    "radius": 3,
    "fillKey": "RED",
    "borderWidth": 0,
    "latitude": 47.68,
    "longitude": -117.32,
    "elev": 609,
    "priority": 6,
    "srcid": "ksff"
  },
  {
    "icao": "KLHX",
    "iata": "LHX",
    "synop": 0,
    "name": "La Junta",
    "state": "CO",
    "country": "US",
    "radius": 3,
    "fillKey": "RED",
    "borderWidth": 0,
    "latitude": 38.05,
    "longitude": -103.52,
    "elev": 1277,
    "priority": 7,
    "srcid": "lhx"
  },
  {
    "icao": "PANT",
    "iata": "ANN",
    "synop": 70398,
    "name": "Annette Island",
    "state": "AK",
    "country": "US",
    "radius": 3,
    "fillKey": "RED",
    "borderWidth": 0,
    "latitude": 55.04,
    "longitude": -131.57,
    "elev": 36,
    "priority": 5,
    "srcid": "pant"
  },
  {
    "icao": "KACY",
    "iata": "ACY",
    "synop": 72407,
    "name": "Atlantic City In",
    "state": "NJ",
    "country": "US",
    "radius": 3,
    "fillKey": "RED",
    "borderWidth": 0,
    "latitude": 39.46,
    "longitude": -74.57,
    "elev": 23,
    "priority": 4,
    "srcid": "kacy"
  },
  {
    "icao": "KMSN",
    "iata": "MSN",
    "synop": 72641,
    "name": "Madison/Dane Rgnl",
    "state": "WI",
    "country": "US",
    "radius": 3,
    "fillKey": "RED",
    "borderWidth": 0,
    "latitude": 43.14,
    "longitude": -89.33,
    "elev": 261,
    "priority": 4,
    "srcid": "kmsn"
  },
  {
    "icao": 0,
    "iata": 0,
    "synop": 0,
    "name": "nw4",
    "state": 0,
    "country": 0,
    "radius": 3,
    "fillKey": "RED",
    "borderWidth": 0,
    "latitude": 47.01,
    "longitude": -138.05,
    "elev": 0,
    "priority": 7,
    "srcid": "nw4"
  },
  {
    "icao": 0,
    "iata": 0,
    "synop": 0,
    "name": "nw7",
    "state": 0,
    "country": 0,
    "radius": 3,
    "fillKey": "RED",
    "borderWidth": 0,
    "latitude": 48.54,
    "longitude": -129.47,
    "elev": 0,
    "priority": 7,
    "srcid": "nw7"
  },
  {
    "icao": 0,
    "iata": 0,
    "synop": 0,
    "name": "95e",
    "state": 0,
    "country": 0,
    "radius": 3,
    "fillKey": "RED",
    "borderWidth": 0,
    "latitude": 33.8,
    "longitude": -106.64,
    "elev": 1474,
    "priority": 7,
    "srcid": "95e"
  },
  {
    "icao": 0,
    "iata": 0,
    "synop": 0,
    "name": "cai",
    "state": 0,
    "country": 0,
    "radius": 3,
    "fillKey": "RED",
    "borderWidth": 0,
    "latitude": 37.29,
    "longitude": -88.86,
    "elev": 118,
    "priority": 7,
    "srcid": "cai"
  },
  {
    "icao": 0,
    "iata": 0,
    "synop": 0,
    "name": "g#5",
    "state": 0,
    "country": 0,
    "radius": 3,
    "fillKey": "RED",
    "borderWidth": 0,
    "latitude": 28.36,
    "longitude": -98.68,
    "elev": 103,
    "priority": 7,
    "srcid": "g#5"
  },
  {
    "icao": "KBAF",
    "iata": "BAF",
    "synop": 0,
    "name": "Westfield/Barnes Muni",
    "state": "MA",
    "country": "US",
    "radius": 3,
    "fillKey": "RED",
    "borderWidth": 0,
    "latitude": 42.16,
    "longitude": -72.72,
    "elev": 83,
    "priority": 6,
    "srcid": "kbaf"
  },
  {
    "icao": "KSRQ",
    "iata": "SRQ",
    "synop": 0,
    "name": "Sarasota/Bradenton Intl",
    "state": "FL",
    "country": "US",
    "radius": 3,
    "fillKey": "RED",
    "borderWidth": 0,
    "latitude": 27.4,
    "longitude": -82.55,
    "elev": 18,
    "priority": 6,
    "srcid": "ksrq"
  },
  {
    "icao": 0,
    "iata": "WNC",
    "synop": 74556,
    "name": "Winchester Profi",
    "state": "IL",
    "country": "US",
    "radius": 3,
    "fillKey": "RED",
    "borderWidth": 0,
    "latitude": 39.71,
    "longitude": -90.52,
    "elev": 165,
    "priority": 8,
    "srcid": "p#j"
  },
  {
    "icao": "KDYS",
    "iata": "DYS",
    "synop": 69019,
    "name": "Dyess AFB/Ablene",
    "state": "TX",
    "country": "US",
    "radius": 3,
    "fillKey": "RED",
    "borderWidth": 0,
    "latitude": 32.44,
    "longitude": -99.85,
    "elev": 545,
    "priority": 6,
    "srcid": "dys"
  },
  {
    "icao": "MHCH",
    "iata": 0,
    "synop": 78724,
    "name": "Choluteca",
    "state": 0,
    "country": "HN",
    "radius": 3,
    "fillKey": "RED",
    "borderWidth": 0,
    "latitude": 13.3166666667,
    "longitude": -87.15,
    "elev": 48,
    "priority": 6,
    "srcid": "mhch"
  },
  {
    "icao": "SKMD",
    "iata": 0,
    "synop": 80110,
    "name": "Medellin/Olaya H",
    "state": 0,
    "country": "CO",
    "radius": 3,
    "fillKey": "RED",
    "borderWidth": 0,
    "latitude": 6.21666666667,
    "longitude": -75.5833333333,
    "elev": 1499,
    "priority": 7,
    "srcid": "skmd"
  },
  {
    "icao": "KSHR",
    "iata": "SHR",
    "synop": 72666,
    "name": "Sheridan Co.",
    "state": "WY",
    "country": "US",
    "radius": 3,
    "fillKey": "RED",
    "borderWidth": 0,
    "latitude": 44.78,
    "longitude": -106.97,
    "elev": 1202,
    "priority": 1,
    "srcid": "kshr"
  },
  {
    "icao": 0,
    "iata": 0,
    "synop": 0,
    "name": "qrz",
    "state": 0,
    "country": 0,
    "radius": 3,
    "fillKey": "RED",
    "borderWidth": 0,
    "latitude": 65.42,
    "longitude": -164.62,
    "elev": 135,
    "priority": 7,
    "srcid": "qrz"
  },
  {
    "icao": "KAQP",
    "iata": "AQP",
    "synop": 0,
    "name": "Appleton Muni",
    "state": "MN",
    "country": "US",
    "radius": 3,
    "fillKey": "RED",
    "borderWidth": 0,
    "latitude": 45.23,
    "longitude": -96,
    "elev": 311,
    "priority": 7,
    "srcid": "kaqp"
  },
  {
    "icao": 0,
    "iata": 0,
    "synop": 0,
    "name": "b#n",
    "state": 0,
    "country": 0,
    "radius": 3,
    "fillKey": "RED",
    "borderWidth": 0,
    "latitude": 17.21,
    "longitude": -157.77,
    "elev": 0,
    "priority": 7,
    "srcid": "b#n"
  },
  {
    "icao": 0,
    "iata": 0,
    "synop": 0,
    "name": "awr",
    "state": 0,
    "country": 0,
    "radius": 3,
    "fillKey": "RED",
    "borderWidth": 0,
    "latitude": 67.73,
    "longitude": -144.02,
    "elev": 566,
    "priority": 7,
    "srcid": "awr"
  },
  {
    "icao": 0,
    "iata": 0,
    "synop": 0,
    "name": "ils",
    "state": 0,
    "country": 0,
    "radius": 3,
    "fillKey": "RED",
    "borderWidth": 0,
    "latitude": 28.89,
    "longitude": -118.29,
    "elev": 0,
    "priority": 7,
    "srcid": "ils"
  },
  {
    "icao": "KJMS",
    "iata": "JMS",
    "synop": 0,
    "name": "Jamestown",
    "state": "ND",
    "country": "US",
    "radius": 3,
    "fillKey": "RED",
    "borderWidth": 0,
    "latitude": 46.93,
    "longitude": -98.68,
    "elev": 455,
    "priority": 6,
    "srcid": "kjms"
  },
  {
    "icao": "KMTV",
    "iata": "MTV",
    "synop": 0,
    "name": "Martinsville",
    "state": "VA",
    "country": "US",
    "radius": 3,
    "fillKey": "RED",
    "borderWidth": 0,
    "latitude": 36.63,
    "longitude": -80.02,
    "elev": 287,
    "priority": 7,
    "srcid": "mtv"
  },
  {
    "icao": "KCLE",
    "iata": "CLE",
    "synop": 72524,
    "name": "Cleveland/Hopkin",
    "state": "OH",
    "country": "US",
    "radius": 3,
    "fillKey": "RED",
    "borderWidth": 0,
    "latitude": 41.43,
    "longitude": -81.87,
    "elev": 233,
    "priority": 3,
    "srcid": "cle"
  },
  {
    "icao": "MMPR",
    "iata": "PVR",
    "synop": 0,
    "name": "Puerto Vallarta",
    "state": 0,
    "country": "MX",
    "radius": 3,
    "fillKey": "RED",
    "borderWidth": 0,
    "latitude": 20.68,
    "longitude": -105.25,
    "elev": 6,
    "priority": 6,
    "srcid": "mmpr"
  },
  {
    "icao": 0,
    "iata": 0,
    "synop": 0,
    "name": "b#j",
    "state": 0,
    "country": 0,
    "radius": 3,
    "fillKey": "RED",
    "borderWidth": 0,
    "latitude": 46.23,
    "longitude": -124.18,
    "elev": 0,
    "priority": 7,
    "srcid": "b#j"
  },
  {
    "icao": "KAYS",
    "iata": "AYS",
    "synop": 72213,
    "name": "Waycross/Ware Co",
    "state": "GA",
    "country": "US",
    "radius": 3,
    "fillKey": "RED",
    "borderWidth": 0,
    "latitude": 31.25,
    "longitude": -82.4,
    "elev": 46,
    "priority": 7,
    "srcid": "kays"
  },
  {
    "icao": "KWYS",
    "iata": "WYS",
    "synop": 0,
    "name": "W Yellowstone",
    "state": "MT",
    "country": "US",
    "radius": 3,
    "fillKey": "RED",
    "borderWidth": 0,
    "latitude": 44.6884,
    "longitude": -111.118,
    "elev": 2025,
    "priority": 8,
    "srcid": "kwys"
  },
  {
    "icao": "CYOW",
    "iata": "YOW",
    "synop": 71628,
    "name": "Ottawa Intl",
    "state": "ON",
    "country": "CA",
    "radius": 3,
    "fillKey": "RED",
    "borderWidth": 0,
    "latitude": 45.33,
    "longitude": -75.67,
    "elev": 114,
    "priority": 2,
    "srcid": "cyow"
  },
  {
    "icao": "KBLI",
    "iata": "BLI",
    "synop": 0,
    "name": "Bellingham Intl",
    "state": "WA",
    "country": "US",
    "radius": 3,
    "fillKey": "RED",
    "borderWidth": 0,
    "latitude": 48.79,
    "longitude": -122.54,
    "elev": 50,
    "priority": 6,
    "srcid": "kbli"
  },
  {
    "icao": "KLFT",
    "iata": "LFT",
    "synop": 0,
    "name": "Lafayette Regnl",
    "state": "LA",
    "country": "US",
    "radius": 3,
    "fillKey": "RED",
    "borderWidth": 0,
    "latitude": 30.2,
    "longitude": -91.99,
    "elev": 11,
    "priority": 6,
    "srcid": "klft"
  },
  {
    "icao": 0,
    "iata": 0,
    "synop": 0,
    "name": "u#2",
    "state": 0,
    "country": 0,
    "radius": 3,
    "fillKey": "RED",
    "borderWidth": 0,
    "latitude": 70.99,
    "longitude": -178.7,
    "elev": 155,
    "priority": 7,
    "srcid": "u#2"
  },
  {
    "icao": "TKPK",
    "iata": 0,
    "synop": 78858,
    "name": "Golden Rock",
    "state": 0,
    "country": "KN",
    "radius": 3,
    "fillKey": "RED",
    "borderWidth": 0,
    "latitude": 17.3,
    "longitude": -62.68,
    "elev": 48,
    "priority": 6,
    "srcid": "tkpk"
  },
  {
    "icao": "KMPV",
    "iata": "MPV",
    "synop": 0,
    "name": "Montpelier/Knapp",
    "state": "VT",
    "country": "US",
    "radius": 3,
    "fillKey": "RED",
    "borderWidth": 0,
    "latitude": 44.21,
    "longitude": -72.57,
    "elev": 343,
    "priority": 4,
    "srcid": "kmpv"
  },
  {
    "icao": "CYQK",
    "iata": "YQK",
    "synop": 71850,
    "name": "Kenora",
    "state": "ON",
    "country": "CA",
    "radius": 3,
    "fillKey": "RED",
    "borderWidth": 0,
    "latitude": 49.79,
    "longitude": -94.37,
    "elev": 411,
    "priority": 6,
    "srcid": "cyqk"
  },
  {
    "icao": "CWSE",
    "iata": "WSE",
    "synop": 71119,
    "name": "Edmonton/Stony P",
    "state": "AB",
    "country": "CA",
    "radius": 3,
    "fillKey": "RED",
    "borderWidth": 0,
    "latitude": 53.5333333333,
    "longitude": -114.083333333,
    "elev": 766,
    "priority": 8,
    "srcid": "cwse"
  },
  {
    "icao": 0,
    "iata": 0,
    "synop": 0,
    "name": "bh5",
    "state": 0,
    "country": 0,
    "radius": 3,
    "fillKey": "RED",
    "borderWidth": 0,
    "latitude": 43.5,
    "longitude": -103.69,
    "elev": 1315,
    "priority": 7,
    "srcid": "bh5"
  },
  {
    "icao": "KRIW",
    "iata": "RIW",
    "synop": 72672,
    "name": "Riverton",
    "state": "WY",
    "country": "US",
    "radius": 3,
    "fillKey": "RED",
    "borderWidth": 0,
    "latitude": 43.05,
    "longitude": -108.45,
    "elev": 1697,
    "priority": 2,
    "srcid": "kriw"
  },
  {
    "icao": "KCXO",
    "iata": "CXO",
    "synop": 0,
    "name": "Conroe/Montgomery Co",
    "state": "TX",
    "country": "US",
    "radius": 3,
    "fillKey": "RED",
    "borderWidth": 0,
    "latitude": 30.36,
    "longitude": -95.41,
    "elev": 75,
    "priority": 8,
    "srcid": "kcxo"
  },
  {
    "icao": "KHXD",
    "iata": "HXD",
    "synop": 0,
    "name": "Hilton Head Is",
    "state": "SC",
    "country": "US",
    "radius": 3,
    "fillKey": "RED",
    "borderWidth": 0,
    "latitude": 32.22,
    "longitude": -80.7,
    "elev": 6,
    "priority": 7,
    "srcid": "khxd"
  },
  {
    "icao": "KAGC",
    "iata": "AGC",
    "synop": 0,
    "name": "Pittsburgh/Allegheny Co",
    "state": "PA",
    "country": "US",
    "radius": 3,
    "fillKey": "RED",
    "borderWidth": 0,
    "latitude": 40.35,
    "longitude": -79.93,
    "elev": 389,
    "priority": 6,
    "srcid": "kagc"
  },
  {
    "icao": 0,
    "iata": 0,
    "synop": 0,
    "name": "oppa",
    "state": 0,
    "country": 0,
    "radius": 3,
    "fillKey": "RED",
    "borderWidth": 0,
    "latitude": 34.56,
    "longitude": -122.3,
    "elev": 0,
    "priority": 7,
    "srcid": "oppa"
  },
  {
    "icao": "MMCV",
    "iata": "CVM",
    "synop": 76491,
    "name": "Cuidad Victoria",
    "state": 0,
    "country": "MX",
    "radius": 3,
    "fillKey": "RED",
    "borderWidth": 0,
    "latitude": 23.72,
    "longitude": -98.97,
    "elev": 238,
    "priority": 6,
    "srcid": "mmcv"
  },
  {
    "icao": "KRCX",
    "iata": "RCX",
    "synop": 0,
    "name": "Ladysmith",
    "state": "WI",
    "country": "US",
    "radius": 3,
    "fillKey": "RED",
    "borderWidth": 0,
    "latitude": 45.497,
    "longitude": -91,
    "elev": 377,
    "priority": 8,
    "srcid": "krcx"
  },
  {
    "icao": "PAGA",
    "iata": "GAL",
    "synop": 70222,
    "name": "Galena Airport",
    "state": "AK",
    "country": "US",
    "radius": 3,
    "fillKey": "RED",
    "borderWidth": 0,
    "latitude": 64.74,
    "longitude": -156.94,
    "elev": 46,
    "priority": 6,
    "srcid": "paga"
  },
  {
    "icao": 0,
    "iata": 0,
    "synop": 0,
    "name": "oppb",
    "state": 0,
    "country": 0,
    "radius": 3,
    "fillKey": "RED",
    "borderWidth": 0,
    "latitude": 30.94,
    "longitude": -121.54,
    "elev": 0,
    "priority": 7,
    "srcid": "oppb"
  },
  {
    "icao": "PAMD",
    "iata": "MDO",
    "synop": 70343,
    "name": "Middleton Is",
    "state": "AK",
    "country": "US",
    "radius": 3,
    "fillKey": "RED",
    "borderWidth": 0,
    "latitude": 59.44,
    "longitude": -146.33,
    "elev": 14,
    "priority": 7,
    "srcid": "pamd"
  },
  {
    "icao": 0,
    "iata": 0,
    "synop": 0,
    "name": "b#k",
    "state": 0,
    "country": 0,
    "radius": 3,
    "fillKey": "RED",
    "borderWidth": 0,
    "latitude": 40.36,
    "longitude": -124.5,
    "elev": 0,
    "priority": 7,
    "srcid": "b#k"
  },
  {
    "icao": 0,
    "iata": 0,
    "synop": 0,
    "name": "cfc",
    "state": 0,
    "country": 0,
    "radius": 3,
    "fillKey": "RED",
    "borderWidth": 0,
    "latitude": 39.03,
    "longitude": -120.95,
    "elev": 616,
    "priority": 7,
    "srcid": "cfc"
  },
  {
    "icao": "KFNT",
    "iata": "FNT",
    "synop": 72637,
    "name": "Flint/Bishop Intl",
    "state": "MI",
    "country": "US",
    "radius": 3,
    "fillKey": "RED",
    "borderWidth": 0,
    "latitude": 42.98,
    "longitude": -83.73,
    "elev": 233,
    "priority": 4,
    "srcid": "kfnt"
  },
  {
    "icao": "KDTX",
    "iata": "DTX",
    "synop": 72632,
    "name": "Detroit",
    "state": "MI",
    "country": "US",
    "radius": 3,
    "fillKey": "RED",
    "borderWidth": 0,
    "latitude": 42.71,
    "longitude": -83.47,
    "elev": 327,
    "priority": 8,
    "srcid": "dtx"
  },
  {
    "icao": 0,
    "iata": 0,
    "synop": 0,
    "name": "b44",
    "state": 0,
    "country": 0,
    "radius": 3,
    "fillKey": "RED",
    "borderWidth": 0,
    "latitude": 28.38,
    "longitude": -110.33,
    "elev": 315,
    "priority": 7,
    "srcid": "b44"
  },
  {
    "icao": "KPSM",
    "iata": "PSM",
    "synop": 0,
    "name": "Pease/Portsmouth",
    "state": "NH",
    "country": "US",
    "radius": 3,
    "fillKey": "RED",
    "borderWidth": 0,
    "latitude": 43.09,
    "longitude": -70.82,
    "elev": 31,
    "priority": 6,
    "srcid": "kpsm"
  },
  {
    "icao": "CYXC",
    "iata": "YXC",
    "synop": 71880,
    "name": "Cranbrook",
    "state": "BC",
    "country": "CA",
    "radius": 3,
    "fillKey": "RED",
    "borderWidth": 0,
    "latitude": 49.62,
    "longitude": -115.78,
    "elev": 939,
    "priority": 6,
    "srcid": "cyxc"
  },
  {
    "icao": "MMMY",
    "iata": "MTY",
    "synop": 0,
    "name": "Monterrey/Gen Maria",
    "state": 0,
    "country": "MX",
    "radius": 3,
    "fillKey": "RED",
    "borderWidth": 0,
    "latitude": 25.78,
    "longitude": -100.1,
    "elev": 387,
    "priority": 6,
    "srcid": "mmmy"
  },
  {
    "icao": "KASE",
    "iata": "ASE",
    "synop": 0,
    "name": "Aspen-Pitkin Co/Sardy Field",
    "state": "CO",
    "country": "US",
    "radius": 3,
    "fillKey": "RED",
    "borderWidth": 0,
    "latitude": 39.22,
    "longitude": -106.87,
    "elev": 2354,
    "priority": 4,
    "srcid": "kase"
  },
  {
    "icao": "KSMP",
    "iata": "SMP",
    "synop": 0,
    "name": "Stampede Pass",
    "state": "WA",
    "country": "US",
    "radius": 3,
    "fillKey": "RED",
    "borderWidth": 0,
    "latitude": 47.29,
    "longitude": -121.33,
    "elev": 1208,
    "priority": 3,
    "srcid": "smp"
  },
  {
    "icao": "KPHX",
    "iata": "PHX",
    "synop": 72278,
    "name": "Phoenix/Sky Harbor",
    "state": "AZ",
    "country": "US",
    "radius": 3,
    "fillKey": "RED",
    "borderWidth": 0,
    "latitude": 33.44,
    "longitude": -112.02,
    "elev": 336,
    "priority": 0,
    "srcid": "kphx"
  },
  {
    "icao": "KCVS",
    "iata": "CVS",
    "synop": 0,
    "name": "Clovis/Cannon",
    "state": "NM",
    "country": "US",
    "radius": 3,
    "fillKey": "RED",
    "borderWidth": 0,
    "latitude": 34.39,
    "longitude": -103.32,
    "elev": 1309,
    "priority": 4,
    "srcid": "cvs"
  },
  {
    "icao": "KBPI",
    "iata": "BPI",
    "synop": 72671,
    "name": "Big Piney",
    "state": "WY",
    "country": "US",
    "radius": 3,
    "fillKey": "RED",
    "borderWidth": 0,
    "latitude": 42.58,
    "longitude": -110.1,
    "elev": 2117,
    "priority": 6,
    "srcid": "kbpi"
  },
  {
    "icao": "KRDD",
    "iata": "RDD",
    "synop": 72592,
    "name": "Redding Muni",
    "state": "CA",
    "country": "US",
    "radius": 3,
    "fillKey": "RED",
    "borderWidth": 0,
    "latitude": 40.51,
    "longitude": -122.3,
    "elev": 155,
    "priority": 3,
    "srcid": "krdd"
  },
  {
    "icao": "KCAR",
    "iata": "CAR",
    "synop": 72712,
    "name": "Caribou",
    "state": "ME",
    "country": "US",
    "radius": 3,
    "fillKey": "RED",
    "borderWidth": 0,
    "latitude": 46.88,
    "longitude": -68.02,
    "elev": 191,
    "priority": 0,
    "srcid": "kcar"
  },
  {
    "icao": "PHNA",
    "iata": "NAX",
    "synop": 0,
    "name": "Barbers Pt NAS",
    "state": "HI",
    "country": "US",
    "radius": 3,
    "fillKey": "RED",
    "borderWidth": 0,
    "latitude": 21.3166666667,
    "longitude": -158.066666667,
    "elev": 15,
    "priority": 8,
    "srcid": "phna"
  },
  {
    "icao": "KNSI",
    "iata": "NSI",
    "synop": 72291,
    "name": "San Nicolas Is.",
    "state": "CA",
    "country": "US",
    "radius": 3,
    "fillKey": "RED",
    "borderWidth": 0,
    "latitude": 33.26,
    "longitude": -119.45,
    "elev": 154,
    "priority": 7,
    "srcid": "knsi"
  },
  {
    "icao": "KMLS",
    "iata": "MLS",
    "synop": 74230,
    "name": "Miles City",
    "state": "MT",
    "country": "US",
    "radius": 3,
    "fillKey": "RED",
    "borderWidth": 0,
    "latitude": 46.44,
    "longitude": -105.87,
    "elev": 801,
    "priority": 4,
    "srcid": "kmls"
  },
  {
    "icao": "KAGS",
    "iata": "AGS",
    "synop": 72218,
    "name": "Augusta/Bush Field",
    "state": "GA",
    "country": "US",
    "radius": 3,
    "fillKey": "RED",
    "borderWidth": 0,
    "latitude": 33.38,
    "longitude": -81.97,
    "elev": 44,
    "priority": 4,
    "srcid": "kags"
  },
  {
    "icao": "KERY",
    "iata": "ERY",
    "synop": 0,
    "name": "Newberry",
    "state": "MI",
    "country": "US",
    "radius": 3,
    "fillKey": "RED",
    "borderWidth": 0,
    "latitude": 46.31,
    "longitude": -85.46,
    "elev": 265,
    "priority": 7,
    "srcid": "kery"
  },
  {
    "icao": "KACT",
    "iata": "ACT",
    "synop": 72256,
    "name": "Waco-Madison Coo",
    "state": "TX",
    "country": "US",
    "radius": 3,
    "fillKey": "RED",
    "borderWidth": 0,
    "latitude": 31.62,
    "longitude": -97.22,
    "elev": 151,
    "priority": 6,
    "srcid": "kact"
  },
  {
    "icao": "MMCE",
    "iata": "CME",
    "synop": 0,
    "name": "Ciudad Del Carmen",
    "state": 0,
    "country": "MX",
    "radius": 3,
    "fillKey": "RED",
    "borderWidth": 0,
    "latitude": 18.65,
    "longitude": -91.8,
    "elev": 2,
    "priority": 6,
    "srcid": "mmce"
  },
  {
    "icao": "KGPI",
    "iata": "GPI",
    "synop": 0,
    "name": "Kalispell",
    "state": "MT",
    "country": "US",
    "radius": 3,
    "fillKey": "RED",
    "borderWidth": 0,
    "latitude": 48.3,
    "longitude": -114.27,
    "elev": 908,
    "priority": 6,
    "srcid": "kgpi"
  },
  {
    "icao": "MHYR",
    "iata": 0,
    "synop": 78707,
    "name": "Yoro",
    "state": 0,
    "country": "HN",
    "radius": 3,
    "fillKey": "RED",
    "borderWidth": 0,
    "latitude": 15.1333333333,
    "longitude": -87.1166666667,
    "elev": 670,
    "priority": 6,
    "srcid": "mhyr"
  },
  {
    "icao": "KIMM",
    "iata": "IMM",
    "synop": 0,
    "name": "Immokalee",
    "state": "FL",
    "country": "US",
    "radius": 3,
    "fillKey": "RED",
    "borderWidth": 0,
    "latitude": 26.4333333333,
    "longitude": -81.4,
    "elev": 12,
    "priority": 8,
    "srcid": "kimm"
  },
  {
    "icao": "KPNT",
    "iata": "PNT",
    "synop": 0,
    "name": "Pontiac",
    "state": "IL",
    "country": "US",
    "radius": 3,
    "fillKey": "RED",
    "borderWidth": 0,
    "latitude": 40.92,
    "longitude": -88.63,
    "elev": 201,
    "priority": 7,
    "srcid": "pnt"
  },
  {
    "icao": "MMGL",
    "iata": "GDL",
    "synop": 0,
    "name": "Guadalajara/Don Miguel",
    "state": 0,
    "country": "MX",
    "radius": 3,
    "fillKey": "RED",
    "borderWidth": 0,
    "latitude": 20.52,
    "longitude": -103.32,
    "elev": 1528,
    "priority": 5,
    "srcid": "mmgl"
  },
  {
    "icao": "CYZX",
    "iata": "YZX",
    "synop": 71397,
    "name": "Greenwood",
    "state": "NS",
    "country": "CA",
    "radius": 3,
    "fillKey": "RED",
    "borderWidth": 0,
    "latitude": 44.98,
    "longitude": -64.92,
    "elev": 28,
    "priority": 6,
    "srcid": "cyzx"
  },
  {
    "icao": "KFLO",
    "iata": "FLO",
    "synop": 0,
    "name": "Florence Regnl",
    "state": "SC",
    "country": "US",
    "radius": 3,
    "fillKey": "RED",
    "borderWidth": 0,
    "latitude": 34.19,
    "longitude": -79.72,
    "elev": 44,
    "priority": 6,
    "srcid": "kflo"
  },
  {
    "icao": "KENV",
    "iata": "ENV",
    "synop": 72581,
    "name": "Wendover (Autob)",
    "state": "UT",
    "country": "US",
    "radius": 3,
    "fillKey": "RED",
    "borderWidth": 0,
    "latitude": 40.73,
    "longitude": -114.03,
    "elev": 1292,
    "priority": 4,
    "srcid": "kenv"
  },
  {
    "icao": "KPHF",
    "iata": "PHF",
    "synop": 0,
    "name": "Patrick Henry",
    "state": "VA",
    "country": "US",
    "radius": 3,
    "fillKey": "RED",
    "borderWidth": 0,
    "latitude": 37.14,
    "longitude": -76.5,
    "elev": 12,
    "priority": 6,
    "srcid": "kphf"
  },
  {
    "icao": "KORE",
    "iata": "ORE",
    "synop": 0,
    "name": "Orange",
    "state": "MA",
    "country": "US",
    "radius": 3,
    "fillKey": "RED",
    "borderWidth": 0,
    "latitude": 42.58,
    "longitude": -72.28,
    "elev": 164,
    "priority": 7,
    "srcid": "kore"
  },
  {
    "icao": "CYHZ",
    "iata": "YHZ",
    "synop": 71395,
    "name": "Halifax Intl",
    "state": "NS",
    "country": "CA",
    "radius": 3,
    "fillKey": "RED",
    "borderWidth": 0,
    "latitude": 44.89,
    "longitude": -63.52,
    "elev": 145,
    "priority": 0,
    "srcid": "cyhz"
  },
  {
    "icao": 0,
    "iata": 0,
    "synop": 0,
    "name": "ptba",
    "state": 0,
    "country": 0,
    "radius": 3,
    "fillKey": "RED",
    "borderWidth": 0,
    "latitude": 37.85,
    "longitude": -122.53,
    "elev": 45,
    "priority": 7,
    "srcid": "ptba"
  },
  {
    "icao": "KEGE",
    "iata": "EGE",
    "synop": 0,
    "name": "Eagle",
    "state": "CO",
    "country": "US",
    "radius": 3,
    "fillKey": "RED",
    "borderWidth": 0,
    "latitude": 39.66,
    "longitude": -106.92,
    "elev": 1993,
    "priority": 6,
    "srcid": "kege"
  },
  {
    "icao": "KMKE",
    "iata": "MKE",
    "synop": 0,
    "name": "Milwaukee/Mitche",
    "state": "WI",
    "country": "US",
    "radius": 3,
    "fillKey": "RED",
    "borderWidth": 0,
    "latitude": 42.96,
    "longitude": -87.9,
    "elev": 206,
    "priority": 3,
    "srcid": "kmke"
  },
  {
    "icao": "KSAF",
    "iata": "SAF",
    "synop": 0,
    "name": "Santa Fe",
    "state": "NM",
    "country": "US",
    "radius": 3,
    "fillKey": "RED",
    "borderWidth": 0,
    "latitude": 35.62,
    "longitude": -106.08,
    "elev": 1930,
    "priority": 1,
    "srcid": "ksaf"
  },
  {
    "icao": "KMHR",
    "iata": "MHR",
    "synop": 0,
    "name": "Sacramento Mather Ap",
    "state": "CA",
    "country": "US",
    "radius": 3,
    "fillKey": "RED",
    "borderWidth": 0,
    "latitude": 38.5553,
    "longitude": -121.297,
    "elev": 29,
    "priority": 7,
    "srcid": "kmhr"
  },
  {
    "icao": "KHON",
    "iata": "HON",
    "synop": 72654,
    "name": "Huron Rgnl",
    "state": "SD",
    "country": "US",
    "radius": 3,
    "fillKey": "RED",
    "borderWidth": 0,
    "latitude": 44.39,
    "longitude": -98.22,
    "elev": 390,
    "priority": 6,
    "srcid": "khon"
  },
  {
    "icao": "KMQT",
    "iata": "MQT",
    "synop": 72743,
    "name": "Marquette Co.",
    "state": "MI",
    "country": "US",
    "radius": 3,
    "fillKey": "RED",
    "borderWidth": 0,
    "latitude": 46.54,
    "longitude": -87.57,
    "elev": 430,
    "priority": 4,
    "srcid": "kmqt"
  },
  {
    "icao": "KDSM",
    "iata": "DSM",
    "synop": 72546,
    "name": "Des Moines Intl",
    "state": "IA",
    "country": "US",
    "radius": 3,
    "fillKey": "RED",
    "borderWidth": 0,
    "latitude": 41.54,
    "longitude": -93.65,
    "elev": 295,
    "priority": 2,
    "srcid": "kdsm"
  },
  {
    "icao": "KSPD",
    "iata": "SPD",
    "synop": 0,
    "name": "Springfield/Comanche Natl Grass",
    "state": "CO",
    "country": "US",
    "radius": 3,
    "fillKey": "RED",
    "borderWidth": 0,
    "latitude": 37.3,
    "longitude": -102.58,
    "elev": 1329,
    "priority": 7,
    "srcid": "8v7"
  },
  {
    "icao": "KCTY",
    "iata": "CTY",
    "synop": 72212,
    "name": "Cross City",
    "state": "FL",
    "country": "US",
    "radius": 3,
    "fillKey": "RED",
    "borderWidth": 0,
    "latitude": 29.62,
    "longitude": -83.1,
    "elev": 13,
    "priority": 6,
    "srcid": "cty"
  },
  {
    "icao": "KEMP",
    "iata": "EMP",
    "synop": 0,
    "name": "Emporia",
    "state": "KS",
    "country": "US",
    "radius": 3,
    "fillKey": "RED",
    "borderWidth": 0,
    "latitude": 38.34,
    "longitude": -96.2,
    "elev": 367,
    "priority": 7,
    "srcid": "kemp"
  },
  {
    "icao": "TFFR",
    "iata": 0,
    "synop": 78897,
    "name": "Le Raizet",
    "state": 0,
    "country": "GP",
    "radius": 3,
    "fillKey": "RED",
    "borderWidth": 0,
    "latitude": 16.2666666667,
    "longitude": -61.5333333333,
    "elev": 11,
    "priority": 8,
    "srcid": "tffr"
  },
  {
    "icao": "KMFE",
    "iata": "MFE",
    "synop": 0,
    "name": "Mcallen/Miller Intl",
    "state": "TX",
    "country": "US",
    "radius": 3,
    "fillKey": "RED",
    "borderWidth": 0,
    "latitude": 26.18,
    "longitude": -98.24,
    "elev": 38,
    "priority": 6,
    "srcid": "kmfe"
  },
  {
    "icao": "PAEH",
    "iata": "EHM",
    "synop": 70305,
    "name": "Cape Newenham",
    "state": "AK",
    "country": "US",
    "radius": 3,
    "fillKey": "RED",
    "borderWidth": 0,
    "latitude": 58.66,
    "longitude": -162.07,
    "elev": 161,
    "priority": 6,
    "srcid": "paeh"
  },
  {
    "icao": "KMRB",
    "iata": "MRB",
    "synop": 0,
    "name": "Martinsburg",
    "state": "WV",
    "country": "US",
    "radius": 3,
    "fillKey": "RED",
    "borderWidth": 0,
    "latitude": 39.41,
    "longitude": -77.98,
    "elev": 164,
    "priority": 4,
    "srcid": "kmrb"
  },
  {
    "icao": "KRBL",
    "iata": "RBL",
    "synop": 72591,
    "name": "Red Bluff Muni",
    "state": "CA",
    "country": "US",
    "radius": 3,
    "fillKey": "RED",
    "borderWidth": 0,
    "latitude": 40.15,
    "longitude": -122.25,
    "elev": 104,
    "priority": 6,
    "srcid": "krbl"
  },
  {
    "icao": 0,
    "iata": 0,
    "synop": 0,
    "name": "c33",
    "state": 0,
    "country": 0,
    "radius": 3,
    "fillKey": "RED",
    "borderWidth": 0,
    "latitude": 35.33,
    "longitude": -98.89,
    "elev": 471,
    "priority": 7,
    "srcid": "c33"
  },
  {
    "icao": 0,
    "iata": 0,
    "synop": 0,
    "name": "pfd",
    "state": 0,
    "country": 0,
    "radius": 3,
    "fillKey": "RED",
    "borderWidth": 0,
    "latitude": 36.87,
    "longitude": -119.28,
    "elev": 622,
    "priority": 7,
    "srcid": "pfd"
  },
  {
    "icao": "KHOB",
    "iata": "HOB",
    "synop": 0,
    "name": "Hobbs",
    "state": "NM",
    "country": "US",
    "radius": 3,
    "fillKey": "RED",
    "borderWidth": 0,
    "latitude": 32.69,
    "longitude": -103.2,
    "elev": 1115,
    "priority": 6,
    "srcid": "khob"
  },
  {
    "icao": "KSAN",
    "iata": "SAN",
    "synop": 72290,
    "name": "San Diego/Lindbe",
    "state": "CA",
    "country": "US",
    "radius": 3,
    "fillKey": "RED",
    "borderWidth": 0,
    "latitude": 32.73,
    "longitude": -117.17,
    "elev": 12,
    "priority": 2,
    "srcid": "ksan"
  },
  {
    "icao": 0,
    "iata": 0,
    "synop": 0,
    "name": "lm2",
    "state": 0,
    "country": 0,
    "radius": 3,
    "fillKey": "RED",
    "borderWidth": 0,
    "latitude": 42.71,
    "longitude": -86.98,
    "elev": 176,
    "priority": 7,
    "srcid": "lm2"
  },
  {
    "icao": "KCIC",
    "iata": "CIC",
    "synop": 72497,
    "name": "Chico",
    "state": "CA",
    "country": "US",
    "radius": 3,
    "fillKey": "RED",
    "borderWidth": 0,
    "latitude": 39.79,
    "longitude": -121.85,
    "elev": 73,
    "priority": 7,
    "srcid": "kcic"
  },
  {
    "icao": 0,
    "iata": 0,
    "synop": 0,
    "name": "c08",
    "state": 0,
    "country": 0,
    "radius": 3,
    "fillKey": "RED",
    "borderWidth": 0,
    "latitude": 37.36,
    "longitude": -105.16,
    "elev": 2971,
    "priority": 7,
    "srcid": "c08"
  },
  {
    "icao": "KLKN",
    "iata": "LKN",
    "synop": 72582,
    "name": "Elko/Wfo",
    "state": "NV",
    "country": "US",
    "radius": 3,
    "fillKey": "RED",
    "borderWidth": 0,
    "latitude": 40.8666666667,
    "longitude": -115.716666667,
    "elev": 1608,
    "priority": 8,
    "srcid": "klkn"
  },
  {
    "icao": "KMFR",
    "iata": "MFR",
    "synop": 72597,
    "name": "Medford/Jackson",
    "state": "OR",
    "country": "US",
    "radius": 3,
    "fillKey": "RED",
    "borderWidth": 0,
    "latitude": 42.38,
    "longitude": -122.87,
    "elev": 396,
    "priority": 0,
    "srcid": "kmfr"
  },
  {
    "icao": "KREO",
    "iata": "REO",
    "synop": 0,
    "name": "Rome",
    "state": "OR",
    "country": "US",
    "radius": 3,
    "fillKey": "RED",
    "borderWidth": 0,
    "latitude": 42.58,
    "longitude": -117.89,
    "elev": 1235,
    "priority": 6,
    "srcid": "reo"
  },
  {
    "icao": "KACV",
    "iata": "ACV",
    "synop": 0,
    "name": "Arcata/Eureka",
    "state": "CA",
    "country": "US",
    "radius": 3,
    "fillKey": "RED",
    "borderWidth": 0,
    "latitude": 40.99,
    "longitude": -124.1,
    "elev": 67,
    "priority": 6,
    "srcid": "kacv"
  },
  {
    "icao": 0,
    "iata": 0,
    "synop": 0,
    "name": "g#4",
    "state": 0,
    "country": 0,
    "radius": 3,
    "fillKey": "RED",
    "borderWidth": 0,
    "latitude": 30.46,
    "longitude": -99.08,
    "elev": 559,
    "priority": 7,
    "srcid": "g#4"
  },
  {
    "icao": "KMOX",
    "iata": "MOX",
    "synop": 0,
    "name": "Morris Muni",
    "state": "MN",
    "country": "US",
    "radius": 3,
    "fillKey": "RED",
    "borderWidth": 0,
    "latitude": 45.5,
    "longitude": -95.92,
    "elev": 343,
    "priority": 7,
    "srcid": "mrs"
  },
  {
    "icao": "KFPK",
    "iata": "FPK",
    "synop": 0,
    "name": "Charlotte/Fitch H Beach Muni",
    "state": "MI",
    "country": "US",
    "radius": 3,
    "fillKey": "RED",
    "borderWidth": 0,
    "latitude": 42.57,
    "longitude": -84.81,
    "elev": 272,
    "priority": 7,
    "srcid": "fpk"
  },